[
  {
    "city": "Stockholm", 
    "lat": "59.3294", 
    "lng": "18.0686", 
    "country": "Sweden", 
    "iso2": "SE", 
    "admin_name": "Stockholm", 
    "capital": "primary", 
    "population": "972647", 
    "population_proper": "972647"
  }, 
  {
    "city": "Gothenburg", 
    "lat": "57.6717", 
    "lng": "11.9810", 
    "country": "Sweden", 
    "iso2": "SE", 
    "admin_name": "Västra Götaland", 
    "capital": "admin", 
    "population": "604829", 
    "population_proper": "604829"
  }, 
  {
    "city": "Malmö", 
    "lat": "55.5932", 
    "lng": "13.0214", 
    "country": "Sweden", 
    "iso2": "SE", 
    "admin_name": "Skåne", 
    "capital": "admin", 
    "population": "324002", 
    "population_proper": "324002"
  }, 
  {
    "city": "Uppsala", 
    "lat": "59.8498", 
    "lng": "17.6389", 
    "country": "Sweden", 
    "iso2": "SE", 
    "admin_name": "Uppsala", 
    "capital": "admin", 
    "population": "165456", 
    "population_proper": "165456"
  }, 
  {
    "city": "Uppsala", 
    "lat": "59.8601", 
    "lng": "17.6400", 
    "country": "Sweden", 
    "iso2": "SE", 
    "admin_name": "Stockholm", 
    "capital": "", 
    "population": "133117", 
    "population_proper": "127734"
  }, 
  {
    "city": "Västerås", 
    "lat": "59.6173", 
    "lng": "16.5422", 
    "country": "Sweden", 
    "iso2": "SE", 
    "admin_name": "Västmanland", 
    "capital": "admin", 
    "population": "128534", 
    "population_proper": "128534"
  }, 
  {
    "city": "Örebro", 
    "lat": "59.2669", 
    "lng": "15.1965", 
    "country": "Sweden", 
    "iso2": "SE", 
    "admin_name": "Örebro", 
    "capital": "admin", 
    "population": "126009", 
    "population_proper": "126009"
  }, 
  {
    "city": "Linköping", 
    "lat": "58.4094", 
    "lng": "15.6257", 
    "country": "Sweden", 
    "iso2": "SE", 
    "admin_name": "Östergötland", 
    "capital": "admin", 
    "population": "115672", 
    "population_proper": "115672"
  }, 
  {
    "city": "Helsingborg", 
    "lat": "56.0424", 
    "lng": "12.7210", 
    "country": "Sweden", 
    "iso2": "SE", 
    "admin_name": "Skåne", 
    "capital": "minor", 
    "population": "113816", 
    "population_proper": "113816"
  }, 
  {
    "city": "Umeå", 
    "lat": "63.8285", 
    "lng": "20.2706", 
    "country": "Sweden", 
    "iso2": "SE", 
    "admin_name": "Västerbotten", 
    "capital": "admin", 
    "population": "90412", 
    "population_proper": "90412"
  }, 
  {
    "city": "Jönköping", 
    "lat": "57.7833", 
    "lng": "14.1667", 
    "country": "Sweden", 
    "iso2": "SE", 
    "admin_name": "Jönköping", 
    "capital": "admin", 
    "population": "89780", 
    "population_proper": "83202"
  }, 
  {
    "city": "Norrköping", 
    "lat": "58.5919", 
    "lng": "16.1856", 
    "country": "Sweden", 
    "iso2": "SE", 
    "admin_name": "Östergötland", 
    "capital": "minor", 
    "population": "88639", 
    "population_proper": "82903"
  }, 
  {
    "city": "Karlstad", 
    "lat": "59.3808", 
    "lng": "13.5016", 
    "country": "Sweden", 
    "iso2": "SE", 
    "admin_name": "Värmland", 
    "capital": "admin", 
    "population": "74141", 
    "population_proper": "59266"
  }, 
  {
    "city": "Sundsvall", 
    "lat": "62.3902", 
    "lng": "17.3067", 
    "country": "Sweden", 
    "iso2": "SE", 
    "admin_name": "Västernorrland", 
    "capital": "minor", 
    "population": "73389", 
    "population_proper": "48463"
  }, 
  {
    "city": "Gävle", 
    "lat": "60.6670", 
    "lng": "17.1666", 
    "country": "Sweden", 
    "iso2": "SE", 
    "admin_name": "Gävleborg", 
    "capital": "admin", 
    "population": "68635", 
    "population_proper": "67836"
  }, 
  {
    "city": "Borås", 
    "lat": "57.7304", 
    "lng": "12.9200", 
    "country": "Sweden", 
    "iso2": "SE", 
    "admin_name": "Västra Götaland", 
    "capital": "minor", 
    "population": "65008", 
    "population_proper": "63223"
  }, 
  {
    "city": "Växjö", 
    "lat": "56.8837", 
    "lng": "14.8167", 
    "country": "Sweden", 
    "iso2": "SE", 
    "admin_name": "Kronoberg", 
    "capital": "admin", 
    "population": "59600", 
    "population_proper": "46535"
  }, 
  {
    "city": "Halmstad", 
    "lat": "56.6754", 
    "lng": "12.8587", 
    "country": "Sweden", 
    "iso2": "SE", 
    "admin_name": "Halland", 
    "capital": "admin", 
    "population": "55657", 
    "population_proper": "55209"
  }, 
  {
    "city": "Luleå", 
    "lat": "65.5838", 
    "lng": "22.1915", 
    "country": "Sweden", 
    "iso2": "SE", 
    "admin_name": "Norrbotten", 
    "capital": "admin", 
    "population": "49123", 
    "population_proper": "49123"
  }, 
  {
    "city": "Östersund", 
    "lat": "63.1775", 
    "lng": "14.6414", 
    "country": "Sweden", 
    "iso2": "SE", 
    "admin_name": "Jämtland", 
    "capital": "admin", 
    "population": "46178", 
    "population_proper": "42940"
  }, 
  {
    "city": "Trollhättan", 
    "lat": "58.2671", 
    "lng": "12.3000", 
    "country": "Sweden", 
    "iso2": "SE", 
    "admin_name": "Västra Götaland", 
    "capital": "minor", 
    "population": "44543", 
    "population_proper": "44522"
  }, 
  {
    "city": "Kalmar", 
    "lat": "56.6694", 
    "lng": "16.3218", 
    "country": "Sweden", 
    "iso2": "SE", 
    "admin_name": "Kalmar", 
    "capital": "admin", 
    "population": "41388", 
    "population_proper": "41388"
  }, 
  {
    "city": "Borlänge", 
    "lat": "60.4833", 
    "lng": "15.4167", 
    "country": "Sweden", 
    "iso2": "SE", 
    "admin_name": "Dalarna", 
    "capital": "minor", 
    "population": "39422", 
    "population_proper": "38527"
  }, 
  {
    "city": "Mölndal", 
    "lat": "57.6542", 
    "lng": "12.0139", 
    "country": "Sweden", 
    "iso2": "SE", 
    "admin_name": "Västra Götaland", 
    "capital": "minor", 
    "population": "37233", 
    "population_proper": "37233"
  }, 
  {
    "city": "Falun", 
    "lat": "60.6130", 
    "lng": "15.6470", 
    "country": "Sweden", 
    "iso2": "SE", 
    "admin_name": "Dalarna", 
    "capital": "admin", 
    "population": "36477", 
    "population_proper": "36477"
  }, 
  {
    "city": "Karlskrona", 
    "lat": "56.1611", 
    "lng": "15.5881", 
    "country": "Sweden", 
    "iso2": "SE", 
    "admin_name": "Blekinge", 
    "capital": "admin", 
    "population": "35212", 
    "population_proper": "35212"
  }, 
  {
    "city": "Nyköping", 
    "lat": "58.7582", 
    "lng": "17.0185", 
    "country": "Sweden", 
    "iso2": "SE", 
    "admin_name": "Södermanland", 
    "capital": "admin", 
    "population": "33916", 
    "population_proper": "33916"
  }, 
  {
    "city": "Kristianstad", 
    "lat": "56.0337", 
    "lng": "14.1333", 
    "country": "Sweden", 
    "iso2": "SE", 
    "admin_name": "Skåne", 
    "capital": "minor", 
    "population": "32188", 
    "population_proper": "21339"
  }, 
  {
    "city": "Skellefteå", 
    "lat": "64.6500", 
    "lng": "20.8500", 
    "country": "Sweden", 
    "iso2": "SE", 
    "admin_name": "Västerbotten", 
    "capital": "minor", 
    "population": "31311", 
    "population_proper": "30839"
  }, 
  {
    "city": "Örnsköldsvik", 
    "lat": "63.2940", 
    "lng": "18.7122", 
    "country": "Sweden", 
    "iso2": "SE", 
    "admin_name": "Västernorrland", 
    "capital": "minor", 
    "population": "27749", 
    "population_proper": "25063"
  }, 
  {
    "city": "Kiruna", 
    "lat": "67.8494", 
    "lng": "20.2544", 
    "country": "Sweden", 
    "iso2": "SE", 
    "admin_name": "Norrbotten", 
    "capital": "minor", 
    "population": "26703", 
    "population_proper": "26703"
  }, 
  {
    "city": "Visby", 
    "lat": "57.6290", 
    "lng": "18.3071", 
    "country": "Sweden", 
    "iso2": "SE", 
    "admin_name": "Gotland", 
    "capital": "admin", 
    "population": "24942", 
    "population_proper": "24942"
  }, 
  {
    "city": "Huskvarna", 
    "lat": "57.7919", 
    "lng": "14.2756", 
    "country": "Sweden", 
    "iso2": "SE", 
    "admin_name": "Jönköping", 
    "capital": "", 
    "population": "22000", 
    "population_proper": "22000"
  }, 
  {
    "city": "Vänersborg", 
    "lat": "58.3630", 
    "lng": "12.3300", 
    "country": "Sweden", 
    "iso2": "SE", 
    "admin_name": "Västra Götaland", 
    "capital": "minor", 
    "population": "21835", 
    "population_proper": "21835"
  }, 
  {
    "city": "Härnösand", 
    "lat": "62.6323", 
    "lng": "17.9379", 
    "country": "Sweden", 
    "iso2": "SE", 
    "admin_name": "Västernorrland", 
    "capital": "admin", 
    "population": "18502", 
    "population_proper": "18502"
  }, 
  {
    "city": "Höganäs", 
    "lat": "56.1960", 
    "lng": "12.5769", 
    "country": "Sweden", 
    "iso2": "SE", 
    "admin_name": "Skåne", 
    "capital": "minor", 
    "population": "16001", 
    "population_proper": "16001"
  }, 
  {
    "city": "Kinna", 
    "lat": "57.4954", 
    "lng": "12.6805", 
    "country": "Sweden", 
    "iso2": "SE", 
    "admin_name": "Västra Götaland", 
    "capital": "minor", 
    "population": "15448", 
    "population_proper": "15448"
  }, 
  {
    "city": "Mariestad", 
    "lat": "58.7050", 
    "lng": "13.8280", 
    "country": "Sweden", 
    "iso2": "SE", 
    "admin_name": "Västra Götaland", 
    "capital": "minor", 
    "population": "14891", 
    "population_proper": "14891"
  }, 
  {
    "city": "Mjölby", 
    "lat": "58.3321", 
    "lng": "15.1312", 
    "country": "Sweden", 
    "iso2": "SE", 
    "admin_name": "Östergötland", 
    "capital": "minor", 
    "population": "13947", 
    "population_proper": "13947"
  }, 
  {
    "city": "Bollnäs", 
    "lat": "61.3484", 
    "lng": "16.3883", 
    "country": "Sweden", 
    "iso2": "SE", 
    "admin_name": "Gävleborg", 
    "capital": "minor", 
    "population": "13398", 
    "population_proper": "12145"
  }, 
  {
    "city": "Mora", 
    "lat": "61.0096", 
    "lng": "14.5635", 
    "country": "Sweden", 
    "iso2": "SE", 
    "admin_name": "Dalarna", 
    "capital": "minor", 
    "population": "12826", 
    "population_proper": "12826"
  }, 
  {
    "city": "Ulricehamn", 
    "lat": "57.7917", 
    "lng": "13.4186", 
    "country": "Sweden", 
    "iso2": "SE", 
    "admin_name": "Västra Götaland", 
    "capital": "minor", 
    "population": "11399", 
    "population_proper": "11399"
  }, 
  {
    "city": "Tibro", 
    "lat": "58.4190", 
    "lng": "14.1580", 
    "country": "Sweden", 
    "iso2": "SE", 
    "admin_name": "Västra Götaland", 
    "capital": "minor", 
    "population": "8614", 
    "population_proper": "8614"
  }, 
  {
    "city": "Habo", 
    "lat": "57.9066", 
    "lng": "14.0856", 
    "country": "Sweden", 
    "iso2": "SE", 
    "admin_name": "Jönköping", 
    "capital": "minor", 
    "population": "8516", 
    "population_proper": "8516"
  }, 
  {
    "city": "Tidaholm", 
    "lat": "58.1794", 
    "lng": "13.9599", 
    "country": "Sweden", 
    "iso2": "SE", 
    "admin_name": "Västra Götaland", 
    "capital": "minor", 
    "population": "8146", 
    "population_proper": "8146"
  }, 
  {
    "city": "Strömstad", 
    "lat": "58.9441", 
    "lng": "11.1864", 
    "country": "Sweden", 
    "iso2": "SE", 
    "admin_name": "Västra Götaland", 
    "capital": "minor", 
    "population": "7466", 
    "population_proper": "7466"
  }, 
  {
    "city": "Haparanda", 
    "lat": "65.8342", 
    "lng": "24.1170", 
    "country": "Sweden", 
    "iso2": "SE", 
    "admin_name": "Norrbotten", 
    "capital": "minor", 
    "population": "6554", 
    "population_proper": "6554"
  }, 
  {
    "city": "Hjo", 
    "lat": "58.3044", 
    "lng": "14.2786", 
    "country": "Sweden", 
    "iso2": "SE", 
    "admin_name": "Västra Götaland", 
    "capital": "minor", 
    "population": "6357", 
    "population_proper": "6357"
  }, 
  {
    "city": "Kungsör", 
    "lat": "59.4227", 
    "lng": "16.1059", 
    "country": "Sweden", 
    "iso2": "SE", 
    "admin_name": "Västmanland", 
    "capital": "minor", 
    "population": "5913", 
    "population_proper": "5913"
  }, 
  {
    "city": "Vårgårda", 
    "lat": "58.0341", 
    "lng": "12.8083", 
    "country": "Sweden", 
    "iso2": "SE", 
    "admin_name": "Västra Götaland", 
    "capital": "minor", 
    "population": "5825", 
    "population_proper": "5825"
  }, 
  {
    "city": "Hjärup", 
    "lat": "55.6707", 
    "lng": "13.1410", 
    "country": "Sweden", 
    "iso2": "SE", 
    "admin_name": "Skåne", 
    "capital": "", 
    "population": "5591", 
    "population_proper": "5591"
  }, 
  {
    "city": "Töreboda", 
    "lat": "58.7020", 
    "lng": "14.1184", 
    "country": "Sweden", 
    "iso2": "SE", 
    "admin_name": "Västra Götaland", 
    "capital": "minor", 
    "population": "4723", 
    "population_proper": "4723"
  }, 
  {
    "city": "Herrljunga", 
    "lat": "58.0752", 
    "lng": "13.0238", 
    "country": "Sweden", 
    "iso2": "SE", 
    "admin_name": "Västra Götaland", 
    "capital": "minor", 
    "population": "4075", 
    "population_proper": "4075"
  }, 
  {
    "city": "Kisa", 
    "lat": "57.9857", 
    "lng": "15.6305", 
    "country": "Sweden", 
    "iso2": "SE", 
    "admin_name": "Östergötland", 
    "capital": "minor", 
    "population": "3813", 
    "population_proper": "3813"
  }, 
  {
    "city": "Svenljunga", 
    "lat": "57.4960", 
    "lng": "13.1102", 
    "country": "Sweden", 
    "iso2": "SE", 
    "admin_name": "Västra Götaland", 
    "capital": "minor", 
    "population": "3774", 
    "population_proper": "3774"
  }, 
  {
    "city": "Karlsborg", 
    "lat": "58.5268", 
    "lng": "14.5231", 
    "country": "Sweden", 
    "iso2": "SE", 
    "admin_name": "Västra Götaland", 
    "capital": "minor", 
    "population": "3749", 
    "population_proper": "3749"
  }, 
  {
    "city": "Åre", 
    "lat": "63.3938", 
    "lng": "12.9351", 
    "country": "Sweden", 
    "iso2": "SE", 
    "admin_name": "Jämtland", 
    "capital": "", 
    "population": "3430", 
    "population_proper": "3430"
  }, 
  {
    "city": "Tranemo", 
    "lat": "57.4838", 
    "lng": "13.3587", 
    "country": "Sweden", 
    "iso2": "SE", 
    "admin_name": "Västra Götaland", 
    "capital": "minor", 
    "population": "3323", 
    "population_proper": "3323"
  }, 
  {
    "city": "Glumslöv", 
    "lat": "55.9425", 
    "lng": "12.8079", 
    "country": "Sweden", 
    "iso2": "SE", 
    "admin_name": "Skåne", 
    "capital": "", 
    "population": "2253", 
    "population_proper": "2253"
  }, 
  {
    "city": "Sjuntorp", 
    "lat": "58.2002", 
    "lng": "12.2367", 
    "country": "Sweden", 
    "iso2": "SE", 
    "admin_name": "Västra Götaland", 
    "capital": "", 
    "population": "2158", 
    "population_proper": "2158"
  }, 
  {
    "city": "Anderslöv", 
    "lat": "55.4378", 
    "lng": "13.3183", 
    "country": "Sweden", 
    "iso2": "SE", 
    "admin_name": "Skåne", 
    "capital": "", 
    "population": "1960", 
    "population_proper": "1960"
  }, 
  {
    "city": "Stenstorp", 
    "lat": "58.2727", 
    "lng": "13.7172", 
    "country": "Sweden", 
    "iso2": "SE", 
    "admin_name": "Västra Götaland", 
    "capital": "", 
    "population": "1794", 
    "population_proper": "1794"
  }, 
  {
    "city": "Övertorneå", 
    "lat": "66.3881", 
    "lng": "23.6436", 
    "country": "Sweden", 
    "iso2": "SE", 
    "admin_name": "Norrbotten", 
    "capital": "minor", 
    "population": "1737", 
    "population_proper": "1737"
  }, 
  {
    "city": "Floby", 
    "lat": "58.1375", 
    "lng": "13.3365", 
    "country": "Sweden", 
    "iso2": "SE", 
    "admin_name": "Västra Götaland", 
    "capital": "", 
    "population": "1593", 
    "population_proper": "1593"
  }, 
  {
    "city": "Gullspång", 
    "lat": "58.9862", 
    "lng": "14.0956", 
    "country": "Sweden", 
    "iso2": "SE", 
    "admin_name": "Västra Götaland", 
    "capital": "", 
    "population": "1567", 
    "population_proper": "1567"
  }, 
  {
    "city": "Brålanda", 
    "lat": "58.5634", 
    "lng": "12.3492", 
    "country": "Sweden", 
    "iso2": "SE", 
    "admin_name": "Västra Götaland", 
    "capital": "", 
    "population": "1532", 
    "population_proper": "1532"
  }, 
  {
    "city": "Limmared", 
    "lat": "57.5379", 
    "lng": "13.3579", 
    "country": "Sweden", 
    "iso2": "SE", 
    "admin_name": "Västra Götaland", 
    "capital": "", 
    "population": "1484", 
    "population_proper": "1484"
  }, 
  {
    "city": "Kvänum", 
    "lat": "58.2998", 
    "lng": "13.1875", 
    "country": "Sweden", 
    "iso2": "SE", 
    "admin_name": "Västra Götaland", 
    "capital": "", 
    "population": "1320", 
    "population_proper": "1320"
  }, 
  {
    "city": "Horred", 
    "lat": "57.3570", 
    "lng": "12.4732", 
    "country": "Sweden", 
    "iso2": "SE", 
    "admin_name": "Västra Götaland", 
    "capital": "", 
    "population": "1261", 
    "population_proper": "1261"
  }, 
  {
    "city": "Sätila", 
    "lat": "57.5395", 
    "lng": "12.4393", 
    "country": "Sweden", 
    "iso2": "SE", 
    "admin_name": "Västra Götaland", 
    "capital": "", 
    "population": "1162", 
    "population_proper": "1162"
  }, 
  {
    "city": "Länghem", 
    "lat": "57.6000", 
    "lng": "13.2456", 
    "country": "Sweden", 
    "iso2": "SE", 
    "admin_name": "Västra Götaland", 
    "capital": "", 
    "population": "1111", 
    "population_proper": "1111"
  }, 
  {
    "city": "Villie", 
    "lat": "55.4789", 
    "lng": "13.5978", 
    "country": "Sweden", 
    "iso2": "SE", 
    "admin_name": "Skåne", 
    "capital": "", 
    "population": "1101", 
    "population_proper": "1101"
  }, 
  {
    "city": "Torekov", 
    "lat": "56.4197", 
    "lng": "12.6339", 
    "country": "Sweden", 
    "iso2": "SE", 
    "admin_name": "Skåne", 
    "capital": "", 
    "population": "1089", 
    "population_proper": "1089"
  }, 
  {
    "city": "Hortlax", 
    "lat": "65.2819", 
    "lng": "21.4054", 
    "country": "Sweden", 
    "iso2": "SE", 
    "admin_name": "Norrbotten", 
    "capital": "", 
    "population": "1085", 
    "population_proper": "1085"
  }, 
  {
    "city": "Mölltorp", 
    "lat": "58.4965", 
    "lng": "14.4141", 
    "country": "Sweden", 
    "iso2": "SE", 
    "admin_name": "Västra Götaland", 
    "capital": "", 
    "population": "1084", 
    "population_proper": "1084"
  }, 
  {
    "city": "Vinninga", 
    "lat": "58.4521", 
    "lng": "13.2616", 
    "country": "Sweden", 
    "iso2": "SE", 
    "admin_name": "Västra Götaland", 
    "capital": "", 
    "population": "1055", 
    "population_proper": "1055"
  }, 
  {
    "city": "Vedum", 
    "lat": "58.1697", 
    "lng": "12.9970", 
    "country": "Sweden", 
    "iso2": "SE", 
    "admin_name": "Västra Götaland", 
    "capital": "", 
    "population": "986", 
    "population_proper": "986"
  }, 
  {
    "city": "Kinnarp", 
    "lat": "58.0779", 
    "lng": "13.5206", 
    "country": "Sweden", 
    "iso2": "SE", 
    "admin_name": "Västra Götaland", 
    "capital": "", 
    "population": "963", 
    "population_proper": "963"
  }, 
  {
    "city": "Sexdrega", 
    "lat": "57.5789", 
    "lng": "13.1189", 
    "country": "Sweden", 
    "iso2": "SE", 
    "admin_name": "Västra Götaland", 
    "capital": "", 
    "population": "813", 
    "population_proper": "813"
  }, 
  {
    "city": "Järpås", 
    "lat": "58.3796", 
    "lng": "12.9740", 
    "country": "Sweden", 
    "iso2": "SE", 
    "admin_name": "Västra Götaland", 
    "capital": "", 
    "population": "790", 
    "population_proper": "790"
  }, 
  {
    "city": "Stora Levene", 
    "lat": "58.3256", 
    "lng": "12.9251", 
    "country": "Sweden", 
    "iso2": "SE", 
    "admin_name": "Västra Götaland", 
    "capital": "", 
    "population": "790", 
    "population_proper": "790"
  }, 
  {
    "city": "Velanda", 
    "lat": "58.2288", 
    "lng": "12.3099", 
    "country": "Sweden", 
    "iso2": "SE", 
    "admin_name": "Västra Götaland", 
    "capital": "", 
    "population": "783", 
    "population_proper": "783"
  }, 
  {
    "city": "Timmele", 
    "lat": "57.8595", 
    "lng": "13.4289", 
    "country": "Sweden", 
    "iso2": "SE", 
    "admin_name": "Västra Götaland", 
    "capital": "", 
    "population": "772", 
    "population_proper": "772"
  }, 
  {
    "city": "Sparreholm", 
    "lat": "59.0736", 
    "lng": "16.8234", 
    "country": "Sweden", 
    "iso2": "SE", 
    "admin_name": "Södermanland", 
    "capital": "", 
    "population": "736", 
    "population_proper": "736"
  }, 
  {
    "city": "Hyssna", 
    "lat": "57.5573", 
    "lng": "12.5384", 
    "country": "Sweden", 
    "iso2": "SE", 
    "admin_name": "Västra Götaland", 
    "capital": "", 
    "population": "734", 
    "population_proper": "734"
  }, 
  {
    "city": "Dalstorp", 
    "lat": "57.6023", 
    "lng": "13.5245", 
    "country": "Sweden", 
    "iso2": "SE", 
    "admin_name": "Västra Götaland", 
    "capital": "", 
    "population": "728", 
    "population_proper": "728"
  }, 
  {
    "city": "Grimsås", 
    "lat": "57.4838", 
    "lng": "13.5503", 
    "country": "Sweden", 
    "iso2": "SE", 
    "admin_name": "Västra Götaland", 
    "capital": "", 
    "population": "723", 
    "population_proper": "723"
  }, 
  {
    "city": "Sandhem", 
    "lat": "57.9868", 
    "lng": "13.7702", 
    "country": "Sweden", 
    "iso2": "SE", 
    "admin_name": "Västra Götaland", 
    "capital": "", 
    "population": "700", 
    "population_proper": "700"
  }, 
  {
    "city": "Ardala", 
    "lat": "58.3613", 
    "lng": "13.3365", 
    "country": "Sweden", 
    "iso2": "SE", 
    "admin_name": "Västra Götaland", 
    "capital": "", 
    "population": "689", 
    "population_proper": "689"
  }, 
  {
    "city": "Fagersanna", 
    "lat": "58.4619", 
    "lng": "14.2689", 
    "country": "Sweden", 
    "iso2": "SE", 
    "admin_name": "Västra Götaland", 
    "capital": "", 
    "population": "683", 
    "population_proper": "683"
  }, 
  {
    "city": "Filsbäck", 
    "lat": "58.4906", 
    "lng": "13.2497", 
    "country": "Sweden", 
    "iso2": "SE", 
    "admin_name": "Västra Götaland", 
    "capital": "", 
    "population": "667", 
    "population_proper": "667"
  }, 
  {
    "city": "Varnhem", 
    "lat": "58.3857", 
    "lng": "13.6482", 
    "country": "Sweden", 
    "iso2": "SE", 
    "admin_name": "Västra Götaland", 
    "capital": "", 
    "population": "667", 
    "population_proper": "667"
  }, 
  {
    "city": "Hökerum", 
    "lat": "57.8398", 
    "lng": "13.2888", 
    "country": "Sweden", 
    "iso2": "SE", 
    "admin_name": "Västra Götaland", 
    "capital": "", 
    "population": "650", 
    "population_proper": "650"
  }, 
  {
    "city": "Hillared", 
    "lat": "57.6296", 
    "lng": "13.1604", 
    "country": "Sweden", 
    "iso2": "SE", 
    "admin_name": "Västra Götaland", 
    "capital": "", 
    "population": "633", 
    "population_proper": "633"
  }, 
  {
    "city": "Frändefors", 
    "lat": "58.4928", 
    "lng": "12.2731", 
    "country": "Sweden", 
    "iso2": "SE", 
    "admin_name": "Västra Götaland", 
    "capital": "", 
    "population": "628", 
    "population_proper": "628"
  }, 
  {
    "city": "Åsarp", 
    "lat": "58.0240", 
    "lng": "13.5651", 
    "country": "Sweden", 
    "iso2": "SE", 
    "admin_name": "Västra Götaland", 
    "capital": "", 
    "population": "607", 
    "population_proper": "607"
  }, 
  {
    "city": "Klagstorp", 
    "lat": "55.3932", 
    "lng": "13.3730", 
    "country": "Sweden", 
    "iso2": "SE", 
    "admin_name": "Skåne", 
    "capital": "", 
    "population": "599", 
    "population_proper": "599"
  }, 
  {
    "city": "Vegby", 
    "lat": "57.6786", 
    "lng": "13.3722", 
    "country": "Sweden", 
    "iso2": "SE", 
    "admin_name": "Västra Götaland", 
    "capital": "", 
    "population": "597", 
    "population_proper": "597"
  }, 
  {
    "city": "Gällstad", 
    "lat": "57.6682", 
    "lng": "13.4299", 
    "country": "Sweden", 
    "iso2": "SE", 
    "admin_name": "Västra Götaland", 
    "capital": "", 
    "population": "597", 
    "population_proper": "597"
  }, 
  {
    "city": "Sandhult", 
    "lat": "57.7710", 
    "lng": "12.8219", 
    "country": "Sweden", 
    "iso2": "SE", 
    "admin_name": "Västra Götaland", 
    "capital": "", 
    "population": "571", 
    "population_proper": "571"
  }, 
  {
    "city": "Blidsberg", 
    "lat": "57.9289", 
    "lng": "13.4926", 
    "country": "Sweden", 
    "iso2": "SE", 
    "admin_name": "Västra Götaland", 
    "capital": "", 
    "population": "561", 
    "population_proper": "561"
  }, 
  {
    "city": "Björketorp", 
    "lat": "57.4270", 
    "lng": "12.5268", 
    "country": "Sweden", 
    "iso2": "SE", 
    "admin_name": "Västra Götaland", 
    "capital": "", 
    "population": "556", 
    "population_proper": "556"
  }, 
  {
    "city": "Upphärad", 
    "lat": "58.1581", 
    "lng": "12.3048", 
    "country": "Sweden", 
    "iso2": "SE", 
    "admin_name": "Västra Götaland", 
    "capital": "", 
    "population": "552", 
    "population_proper": "552"
  }, 
  {
    "city": "Lerdala", 
    "lat": "58.4777", 
    "lng": "13.7144", 
    "country": "Sweden", 
    "iso2": "SE", 
    "admin_name": "Västra Götaland", 
    "capital": "", 
    "population": "540", 
    "population_proper": "540"
  }, 
  {
    "city": "Vartofta", 
    "lat": "58.0957", 
    "lng": "13.6290", 
    "country": "Sweden", 
    "iso2": "SE", 
    "admin_name": "Västra Götaland", 
    "capital": "", 
    "population": "532", 
    "population_proper": "532"
  }, 
  {
    "city": "Arentorp", 
    "lat": "58.2423", 
    "lng": "12.8737", 
    "country": "Sweden", 
    "iso2": "SE", 
    "admin_name": "Västra Götaland", 
    "capital": "", 
    "population": "510", 
    "population_proper": "510"
  }, 
  {
    "city": "Marbäck", 
    "lat": "57.7410", 
    "lng": "13.4219", 
    "country": "Sweden", 
    "iso2": "SE", 
    "admin_name": "Västra Götaland", 
    "capital": "", 
    "population": "510", 
    "population_proper": "510"
  }, 
  {
    "city": "Överlida", 
    "lat": "57.3509", 
    "lng": "12.8992", 
    "country": "Sweden", 
    "iso2": "SE", 
    "admin_name": "Västra Götaland", 
    "capital": "", 
    "population": "498", 
    "population_proper": "498"
  }, 
  {
    "city": "Ekedalen", 
    "lat": "58.1996", 
    "lng": "13.8407", 
    "country": "Sweden", 
    "iso2": "SE", 
    "admin_name": "Västra Götaland", 
    "capital": "", 
    "population": "483", 
    "population_proper": "483"
  }, 
  {
    "city": "Tråvad", 
    "lat": "58.2504", 
    "lng": "13.0862", 
    "country": "Sweden", 
    "iso2": "SE", 
    "admin_name": "Västra Götaland", 
    "capital": "", 
    "population": "477", 
    "population_proper": "477"
  }, 
  {
    "city": "Torbjörntorp", 
    "lat": "58.2109", 
    "lng": "13.6017", 
    "country": "Sweden", 
    "iso2": "SE", 
    "admin_name": "Västra Götaland", 
    "capital": "", 
    "population": "457", 
    "population_proper": "457"
  }, 
  {
    "city": "Rydal", 
    "lat": "57.5517", 
    "lng": "12.6922", 
    "country": "Sweden", 
    "iso2": "SE", 
    "admin_name": "Västra Götaland", 
    "capital": "", 
    "population": "434", 
    "population_proper": "434"
  }, 
  {
    "city": "Gudhem", 
    "lat": "58.2268", 
    "lng": "13.5667", 
    "country": "Sweden", 
    "iso2": "SE", 
    "admin_name": "Västra Götaland", 
    "capital": "", 
    "population": "434", 
    "population_proper": "434"
  }, 
  {
    "city": "Borgstena", 
    "lat": "57.8842", 
    "lng": "13.0170", 
    "country": "Sweden", 
    "iso2": "SE", 
    "admin_name": "Västra Götaland", 
    "capital": "", 
    "population": "423", 
    "population_proper": "423"
  }, 
  {
    "city": "Östadkulle", 
    "lat": "58.0164", 
    "lng": "12.6425", 
    "country": "Sweden", 
    "iso2": "SE", 
    "admin_name": "Västra Götaland", 
    "capital": "", 
    "population": "409", 
    "population_proper": "409"
  }, 
  {
    "city": "Torestorp", 
    "lat": "57.3892", 
    "lng": "12.6729", 
    "country": "Sweden", 
    "iso2": "SE", 
    "admin_name": "Västra Götaland", 
    "capital": "", 
    "population": "406", 
    "population_proper": "406"
  }, 
  {
    "city": "Jung", 
    "lat": "58.3258", 
    "lng": "13.1102", 
    "country": "Sweden", 
    "iso2": "SE", 
    "admin_name": "Västra Götaland", 
    "capital": "", 
    "population": "396", 
    "population_proper": "396"
  }, 
  {
    "city": "Berghem", 
    "lat": "57.4640", 
    "lng": "12.5873", 
    "country": "Sweden", 
    "iso2": "SE", 
    "admin_name": "Västra Götaland", 
    "capital": "", 
    "population": "381", 
    "population_proper": "381"
  }, 
  {
    "city": "Älgarås", 
    "lat": "58.8125", 
    "lng": "14.2541", 
    "country": "Sweden", 
    "iso2": "SE", 
    "admin_name": "Västra Götaland", 
    "capital": "", 
    "population": "374", 
    "population_proper": "374"
  }, 
  {
    "city": "Kebal", 
    "lat": "58.9486", 
    "lng": "11.0003", 
    "country": "Sweden", 
    "iso2": "SE", 
    "admin_name": "Västra Götaland", 
    "capital": "", 
    "population": "373", 
    "population_proper": "373"
  }, 
  {
    "city": "Nedre Gärdsjö", 
    "lat": "60.9397", 
    "lng": "15.2268", 
    "country": "Sweden", 
    "iso2": "SE", 
    "admin_name": "Dalarna", 
    "capital": "", 
    "population": "372", 
    "population_proper": "372"
  }, 
  {
    "city": "Nitta", 
    "lat": "57.8277", 
    "lng": "13.1885", 
    "country": "Sweden", 
    "iso2": "SE", 
    "admin_name": "Västra Götaland", 
    "capital": "", 
    "population": "361", 
    "population_proper": "361"
  }, 
  {
    "city": "Grangärde", 
    "lat": "60.2667", 
    "lng": "14.9833", 
    "country": "Sweden", 
    "iso2": "SE", 
    "admin_name": "Dalarna", 
    "capital": "", 
    "population": "351", 
    "population_proper": "351"
  }, 
  {
    "city": "Skattungbyn", 
    "lat": "61.1848", 
    "lng": "14.8511", 
    "country": "Sweden", 
    "iso2": "SE", 
    "admin_name": "Dalarna", 
    "capital": "", 
    "population": "350", 
    "population_proper": "350"
  }, 
  {
    "city": "Furusjö", 
    "lat": "57.9286", 
    "lng": "13.9606", 
    "country": "Sweden", 
    "iso2": "SE", 
    "admin_name": "Västra Götaland", 
    "capital": "", 
    "population": "346", 
    "population_proper": "346"
  }, 
  {
    "city": "Rånnaväg", 
    "lat": "57.6769", 
    "lng": "13.4679", 
    "country": "Sweden", 
    "iso2": "SE", 
    "admin_name": "Västra Götaland", 
    "capital": "", 
    "population": "336", 
    "population_proper": "336"
  }, 
  {
    "city": "Östra Frölunda", 
    "lat": "57.3430", 
    "lng": "13.0323", 
    "country": "Sweden", 
    "iso2": "SE", 
    "admin_name": "Västra Götaland", 
    "capital": "", 
    "population": "329", 
    "population_proper": "329"
  }, 
  {
    "city": "Öxabäck", 
    "lat": "57.3959", 
    "lng": "12.8046", 
    "country": "Sweden", 
    "iso2": "SE", 
    "admin_name": "Västra Götaland", 
    "capital": "", 
    "population": "326", 
    "population_proper": "326"
  }, 
  {
    "city": "Forsvik", 
    "lat": "58.5800", 
    "lng": "14.4342", 
    "country": "Sweden", 
    "iso2": "SE", 
    "admin_name": "Västra Götaland", 
    "capital": "", 
    "population": "323", 
    "population_proper": "323"
  }, 
  {
    "city": "Fagerhult", 
    "lat": "58.0006", 
    "lng": "14.1238", 
    "country": "Sweden", 
    "iso2": "SE", 
    "admin_name": "Västra Götaland", 
    "capital": "", 
    "population": "322", 
    "population_proper": "322"
  }, 
  {
    "city": "Sundbyberg", 
    "lat": "59.3607", 
    "lng": "17.9717", 
    "country": "Sweden", 
    "iso2": "SE", 
    "admin_name": "Stockholm", 
    "capital": "minor", 
    "population": "", 
    "population_proper": ""
  }, 
  {
    "city": "Solna", 
    "lat": "59.3667", 
    "lng": "18.0167", 
    "country": "Sweden", 
    "iso2": "SE", 
    "admin_name": "Stockholm", 
    "capital": "minor", 
    "population": "", 
    "population_proper": ""
  }, 
  {
    "city": "Lund", 
    "lat": "55.7000", 
    "lng": "13.1833", 
    "country": "Sweden", 
    "iso2": "SE", 
    "admin_name": "Skåne", 
    "capital": "minor", 
    "population": "", 
    "population_proper": ""
  }, 
  {
    "city": "Trelleborg", 
    "lat": "55.3667", 
    "lng": "13.1667", 
    "country": "Sweden", 
    "iso2": "SE", 
    "admin_name": "Skåne", 
    "capital": "minor", 
    "population": "", 
    "population_proper": ""
  }, 
  {
    "city": "Kungsbacka", 
    "lat": "57.4833", 
    "lng": "12.0667", 
    "country": "Sweden", 
    "iso2": "SE", 
    "admin_name": "Halland", 
    "capital": "minor", 
    "population": "", 
    "population_proper": ""
  }, 
  {
    "city": "Lidingö", 
    "lat": "59.3642", 
    "lng": "18.1310", 
    "country": "Sweden", 
    "iso2": "SE", 
    "admin_name": "Stockholm", 
    "capital": "minor", 
    "population": "", 
    "population_proper": ""
  }, 
  {
    "city": "Jakobsberg", 
    "lat": "59.4167", 
    "lng": "17.8333", 
    "country": "Sweden", 
    "iso2": "SE", 
    "admin_name": "Stockholm", 
    "capital": "minor", 
    "population": "", 
    "population_proper": ""
  }, 
  {
    "city": "Sollentuna", 
    "lat": "59.4667", 
    "lng": "17.9000", 
    "country": "Sweden", 
    "iso2": "SE", 
    "admin_name": "Stockholm", 
    "capital": "minor", 
    "population": "", 
    "population_proper": ""
  }, 
  {
    "city": "Varberg", 
    "lat": "57.1086", 
    "lng": "12.2661", 
    "country": "Sweden", 
    "iso2": "SE", 
    "admin_name": "Halland", 
    "capital": "minor", 
    "population": "", 
    "population_proper": ""
  }, 
  {
    "city": "Djursholm", 
    "lat": "59.4000", 
    "lng": "18.0833", 
    "country": "Sweden", 
    "iso2": "SE", 
    "admin_name": "Stockholm", 
    "capital": "minor", 
    "population": "", 
    "population_proper": ""
  }, 
  {
    "city": "Ystad", 
    "lat": "55.4167", 
    "lng": "13.8167", 
    "country": "Sweden", 
    "iso2": "SE", 
    "admin_name": "Skåne", 
    "capital": "minor", 
    "population": "", 
    "population_proper": ""
  }, 
  {
    "city": "Nacka", 
    "lat": "59.3000", 
    "lng": "18.1667", 
    "country": "Sweden", 
    "iso2": "SE", 
    "admin_name": "Stockholm", 
    "capital": "minor", 
    "population": "", 
    "population_proper": ""
  }, 
  {
    "city": "Falkenberg", 
    "lat": "56.8981", 
    "lng": "12.5019", 
    "country": "Sweden", 
    "iso2": "SE", 
    "admin_name": "Halland", 
    "capital": "minor", 
    "population": "", 
    "population_proper": ""
  }, 
  {
    "city": "Täby", 
    "lat": "59.5000", 
    "lng": "18.0500", 
    "country": "Sweden", 
    "iso2": "SE", 
    "admin_name": "Stockholm", 
    "capital": "minor", 
    "population": "", 
    "population_proper": ""
  }, 
  {
    "city": "Lysekil", 
    "lat": "58.2833", 
    "lng": "11.4333", 
    "country": "Sweden", 
    "iso2": "SE", 
    "admin_name": "Västra Götaland", 
    "capital": "minor", 
    "population": "", 
    "population_proper": ""
  }, 
  {
    "city": "Tumba", 
    "lat": "59.2000", 
    "lng": "17.8167", 
    "country": "Sweden", 
    "iso2": "SE", 
    "admin_name": "Stockholm", 
    "capital": "minor", 
    "population": "", 
    "population_proper": ""
  }, 
  {
    "city": "Arlöv", 
    "lat": "55.6333", 
    "lng": "13.0667", 
    "country": "Sweden", 
    "iso2": "SE", 
    "admin_name": "Skåne", 
    "capital": "minor", 
    "population": "", 
    "population_proper": ""
  }, 
  {
    "city": "Kungälv", 
    "lat": "57.8667", 
    "lng": "11.9667", 
    "country": "Sweden", 
    "iso2": "SE", 
    "admin_name": "Västra Götaland", 
    "capital": "minor", 
    "population": "", 
    "population_proper": ""
  }, 
  {
    "city": "Lidköping", 
    "lat": "58.5000", 
    "lng": "13.1667", 
    "country": "Sweden", 
    "iso2": "SE", 
    "admin_name": "Västra Götaland", 
    "capital": "minor", 
    "population": "", 
    "population_proper": ""
  }, 
  {
    "city": "Hässleholm", 
    "lat": "56.1568", 
    "lng": "13.7702", 
    "country": "Sweden", 
    "iso2": "SE", 
    "admin_name": "Skåne", 
    "capital": "minor", 
    "population": "", 
    "population_proper": ""
  }, 
  {
    "city": "Eskilstuna", 
    "lat": "59.3487", 
    "lng": "16.4490", 
    "country": "Sweden", 
    "iso2": "SE", 
    "admin_name": "Södermanland", 
    "capital": "minor", 
    "population": "", 
    "population_proper": ""
  }, 
  {
    "city": "Lomma", 
    "lat": "55.6833", 
    "lng": "13.0833", 
    "country": "Sweden", 
    "iso2": "SE", 
    "admin_name": "Skåne", 
    "capital": "minor", 
    "population": "", 
    "population_proper": ""
  }, 
  {
    "city": "Södertälje", 
    "lat": "59.1978", 
    "lng": "17.6272", 
    "country": "Sweden", 
    "iso2": "SE", 
    "admin_name": "Stockholm", 
    "capital": "minor", 
    "population": "", 
    "population_proper": ""
  }, 
  {
    "city": "Borgholm", 
    "lat": "56.8833", 
    "lng": "16.6500", 
    "country": "Sweden", 
    "iso2": "SE", 
    "admin_name": "Kalmar", 
    "capital": "minor", 
    "population": "", 
    "population_proper": ""
  }, 
  {
    "city": "Tyresö", 
    "lat": "59.2333", 
    "lng": "18.3000", 
    "country": "Sweden", 
    "iso2": "SE", 
    "admin_name": "Stockholm", 
    "capital": "minor", 
    "population": "", 
    "population_proper": ""
  }, 
  {
    "city": "Uddevalla", 
    "lat": "58.3667", 
    "lng": "11.9333", 
    "country": "Sweden", 
    "iso2": "SE", 
    "admin_name": "Västra Götaland", 
    "capital": "minor", 
    "population": "", 
    "population_proper": ""
  }, 
  {
    "city": "Huddinge", 
    "lat": "59.2333", 
    "lng": "17.9833", 
    "country": "Sweden", 
    "iso2": "SE", 
    "admin_name": "Stockholm", 
    "capital": "minor", 
    "population": "", 
    "population_proper": ""
  }, 
  {
    "city": "Norrtälje", 
    "lat": "59.7667", 
    "lng": "18.7000", 
    "country": "Sweden", 
    "iso2": "SE", 
    "admin_name": "Stockholm", 
    "capital": "minor", 
    "population": "", 
    "population_proper": ""
  }, 
  {
    "city": "Oskarshamn", 
    "lat": "57.2667", 
    "lng": "16.4333", 
    "country": "Sweden", 
    "iso2": "SE", 
    "admin_name": "Kalmar", 
    "capital": "minor", 
    "population": "", 
    "population_proper": ""
  }, 
  {
    "city": "Skövde", 
    "lat": "58.4000", 
    "lng": "13.8500", 
    "country": "Sweden", 
    "iso2": "SE", 
    "admin_name": "Västra Götaland", 
    "capital": "minor", 
    "population": "", 
    "population_proper": ""
  }, 
  {
    "city": "Landskrona", 
    "lat": "55.8667", 
    "lng": "12.8333", 
    "country": "Sweden", 
    "iso2": "SE", 
    "admin_name": "Skåne", 
    "capital": "minor", 
    "population": "", 
    "population_proper": ""
  }, 
  {
    "city": "Arvika", 
    "lat": "59.6578", 
    "lng": "12.5942", 
    "country": "Sweden", 
    "iso2": "SE", 
    "admin_name": "Värmland", 
    "capital": "minor", 
    "population": "", 
    "population_proper": ""
  }, 
  {
    "city": "Västervik", 
    "lat": "57.7500", 
    "lng": "16.6333", 
    "country": "Sweden", 
    "iso2": "SE", 
    "admin_name": "Kalmar", 
    "capital": "minor", 
    "population": "", 
    "population_proper": ""
  }, 
  {
    "city": "Mölnlycke", 
    "lat": "57.6500", 
    "lng": "12.1333", 
    "country": "Sweden", 
    "iso2": "SE", 
    "admin_name": "Västra Götaland", 
    "capital": "minor", 
    "population": "", 
    "population_proper": ""
  }, 
  {
    "city": "Avesta", 
    "lat": "60.1500", 
    "lng": "16.2000", 
    "country": "Sweden", 
    "iso2": "SE", 
    "admin_name": "Dalarna", 
    "capital": "minor", 
    "population": "", 
    "population_proper": ""
  }, 
  {
    "city": "Ängelholm", 
    "lat": "56.2500", 
    "lng": "12.8667", 
    "country": "Sweden", 
    "iso2": "SE", 
    "admin_name": "Skåne", 
    "capital": "minor", 
    "population": "", 
    "population_proper": ""
  }, 
  {
    "city": "Partille", 
    "lat": "57.7333", 
    "lng": "12.1167", 
    "country": "Sweden", 
    "iso2": "SE", 
    "admin_name": "Västra Götaland", 
    "capital": "minor", 
    "population": "", 
    "population_proper": ""
  }, 
  {
    "city": "Nynäshamn", 
    "lat": "58.9076", 
    "lng": "17.9446", 
    "country": "Sweden", 
    "iso2": "SE", 
    "admin_name": "Stockholm", 
    "capital": "minor", 
    "population": "", 
    "population_proper": ""
  }, 
  {
    "city": "Stenungsund", 
    "lat": "58.0833", 
    "lng": "11.8167", 
    "country": "Sweden", 
    "iso2": "SE", 
    "admin_name": "Västra Götaland", 
    "capital": "minor", 
    "population": "", 
    "population_proper": ""
  }, 
  {
    "city": "Öckerö", 
    "lat": "57.7081", 
    "lng": "11.6413", 
    "country": "Sweden", 
    "iso2": "SE", 
    "admin_name": "Västra Götaland", 
    "capital": "minor", 
    "population": "", 
    "population_proper": ""
  }, 
  {
    "city": "Bålsta", 
    "lat": "59.5833", 
    "lng": "17.5000", 
    "country": "Sweden", 
    "iso2": "SE", 
    "admin_name": "Uppsala", 
    "capital": "minor", 
    "population": "", 
    "population_proper": ""
  }, 
  {
    "city": "Åstorp", 
    "lat": "56.1333", 
    "lng": "12.9500", 
    "country": "Sweden", 
    "iso2": "SE", 
    "admin_name": "Skåne", 
    "capital": "minor", 
    "population": "", 
    "population_proper": ""
  }, 
  {
    "city": "Märsta", 
    "lat": "59.6167", 
    "lng": "17.8500", 
    "country": "Sweden", 
    "iso2": "SE", 
    "admin_name": "Stockholm", 
    "capital": "minor", 
    "population": "", 
    "population_proper": ""
  }, 
  {
    "city": "Ekerö", 
    "lat": "59.2667", 
    "lng": "17.7333", 
    "country": "Sweden", 
    "iso2": "SE", 
    "admin_name": "Stockholm", 
    "capital": "minor", 
    "population": "", 
    "population_proper": ""
  }, 
  {
    "city": "Enköping", 
    "lat": "59.6333", 
    "lng": "17.0667", 
    "country": "Sweden", 
    "iso2": "SE", 
    "admin_name": "Uppsala", 
    "capital": "minor", 
    "population": "", 
    "population_proper": ""
  }, 
  {
    "city": "Älmhult", 
    "lat": "56.5500", 
    "lng": "14.1333", 
    "country": "Sweden", 
    "iso2": "SE", 
    "admin_name": "Kronoberg", 
    "capital": "minor", 
    "population": "", 
    "population_proper": ""
  }, 
  {
    "city": "Söderhamn", 
    "lat": "61.3084", 
    "lng": "17.0526", 
    "country": "Sweden", 
    "iso2": "SE", 
    "admin_name": "Gävleborg", 
    "capital": "minor", 
    "population": "", 
    "population_proper": ""
  }, 
  {
    "city": "Skara", 
    "lat": "58.3667", 
    "lng": "13.4167", 
    "country": "Sweden", 
    "iso2": "SE", 
    "admin_name": "Västra Götaland", 
    "capital": "minor", 
    "population": "", 
    "population_proper": ""
  }, 
  {
    "city": "Staffanstorp", 
    "lat": "55.6333", 
    "lng": "13.2167", 
    "country": "Sweden", 
    "iso2": "SE", 
    "admin_name": "Skåne", 
    "capital": "minor", 
    "population": "", 
    "population_proper": ""
  }, 
  {
    "city": "Oxelösund", 
    "lat": "58.6667", 
    "lng": "17.1000", 
    "country": "Sweden", 
    "iso2": "SE", 
    "admin_name": "Södermanland", 
    "capital": "minor", 
    "population": "", 
    "population_proper": ""
  }, 
  {
    "city": "Rönninge", 
    "lat": "59.2000", 
    "lng": "17.7333", 
    "country": "Sweden", 
    "iso2": "SE", 
    "admin_name": "Stockholm", 
    "capital": "minor", 
    "population": "", 
    "population_proper": ""
  }, 
  {
    "city": "Lerum", 
    "lat": "57.7667", 
    "lng": "12.2667", 
    "country": "Sweden", 
    "iso2": "SE", 
    "admin_name": "Västra Götaland", 
    "capital": "minor", 
    "population": "", 
    "population_proper": ""
  }, 
  {
    "city": "Motala", 
    "lat": "58.5500", 
    "lng": "15.0500", 
    "country": "Sweden", 
    "iso2": "SE", 
    "admin_name": "Östergötland", 
    "capital": "minor", 
    "population": "", 
    "population_proper": ""
  }, 
  {
    "city": "Ljungby", 
    "lat": "56.8333", 
    "lng": "13.9333", 
    "country": "Sweden", 
    "iso2": "SE", 
    "admin_name": "Kronoberg", 
    "capital": "minor", 
    "population": "", 
    "population_proper": ""
  }, 
  {
    "city": "Falköping", 
    "lat": "58.1700", 
    "lng": "13.5551", 
    "country": "Sweden", 
    "iso2": "SE", 
    "admin_name": "Västra Götaland", 
    "capital": "minor", 
    "population": "", 
    "population_proper": ""
  }, 
  {
    "city": "Kävlinge", 
    "lat": "55.8000", 
    "lng": "13.1000", 
    "country": "Sweden", 
    "iso2": "SE", 
    "admin_name": "Skåne", 
    "capital": "minor", 
    "population": "", 
    "population_proper": ""
  }, 
  {
    "city": "Skoghall", 
    "lat": "59.3333", 
    "lng": "13.4333", 
    "country": "Sweden", 
    "iso2": "SE", 
    "admin_name": "Värmland", 
    "capital": "minor", 
    "population": "", 
    "population_proper": ""
  }, 
  {
    "city": "Skurup", 
    "lat": "55.4667", 
    "lng": "13.5000", 
    "country": "Sweden", 
    "iso2": "SE", 
    "admin_name": "Skåne", 
    "capital": "minor", 
    "population": "", 
    "population_proper": ""
  }, 
  {
    "city": "Upplands Väsby", 
    "lat": "59.5167", 
    "lng": "17.9000", 
    "country": "Sweden", 
    "iso2": "SE", 
    "admin_name": "Stockholm", 
    "capital": "minor", 
    "population": "", 
    "population_proper": ""
  }, 
  {
    "city": "Åkersberga", 
    "lat": "59.4833", 
    "lng": "18.3000", 
    "country": "Sweden", 
    "iso2": "SE", 
    "admin_name": "Stockholm", 
    "capital": "minor", 
    "population": "", 
    "population_proper": ""
  }, 
  {
    "city": "Emmaboda", 
    "lat": "56.6333", 
    "lng": "15.5333", 
    "country": "Sweden", 
    "iso2": "SE", 
    "admin_name": "Kalmar", 
    "capital": "minor", 
    "population": "", 
    "population_proper": ""
  }, 
  {
    "city": "Knivsta", 
    "lat": "59.7167", 
    "lng": "17.8000", 
    "country": "Sweden", 
    "iso2": "SE", 
    "admin_name": "Uppsala", 
    "capital": "minor", 
    "population": "", 
    "population_proper": ""
  }, 
  {
    "city": "Gustavsberg", 
    "lat": "59.3167", 
    "lng": "18.3833", 
    "country": "Sweden", 
    "iso2": "SE", 
    "admin_name": "Stockholm", 
    "capital": "minor", 
    "population": "", 
    "population_proper": ""
  }, 
  {
    "city": "Alingsås", 
    "lat": "57.9333", 
    "lng": "12.5167", 
    "country": "Sweden", 
    "iso2": "SE", 
    "admin_name": "Västra Götaland", 
    "capital": "minor", 
    "population": "", 
    "population_proper": ""
  }, 
  {
    "city": "Kungsängen", 
    "lat": "59.4833", 
    "lng": "17.7500", 
    "country": "Sweden", 
    "iso2": "SE", 
    "admin_name": "Stockholm", 
    "capital": "minor", 
    "population": "", 
    "population_proper": ""
  }, 
  {
    "city": "Nybro", 
    "lat": "56.7500", 
    "lng": "15.9000", 
    "country": "Sweden", 
    "iso2": "SE", 
    "admin_name": "Kalmar", 
    "capital": "minor", 
    "population": "", 
    "population_proper": ""
  }, 
  {
    "city": "Vallentuna", 
    "lat": "59.5333", 
    "lng": "18.0833", 
    "country": "Sweden", 
    "iso2": "SE", 
    "admin_name": "Stockholm", 
    "capital": "minor", 
    "population": "", 
    "population_proper": ""
  }, 
  {
    "city": "Kumla", 
    "lat": "59.1333", 
    "lng": "15.1333", 
    "country": "Sweden", 
    "iso2": "SE", 
    "admin_name": "Örebro", 
    "capital": "minor", 
    "population": "", 
    "population_proper": ""
  }, 
  {
    "city": "Sjöbo", 
    "lat": "55.6333", 
    "lng": "13.7000", 
    "country": "Sweden", 
    "iso2": "SE", 
    "admin_name": "Skåne", 
    "capital": "minor", 
    "population": "", 
    "population_proper": ""
  }, 
  {
    "city": "Sandviken", 
    "lat": "60.6167", 
    "lng": "16.7667", 
    "country": "Sweden", 
    "iso2": "SE", 
    "admin_name": "Gävleborg", 
    "capital": "minor", 
    "population": "", 
    "population_proper": ""
  }, 
  {
    "city": "Nässjö", 
    "lat": "57.6500", 
    "lng": "14.6833", 
    "country": "Sweden", 
    "iso2": "SE", 
    "admin_name": "Jönköping", 
    "capital": "minor", 
    "population": "", 
    "population_proper": ""
  }, 
  {
    "city": "Eslöv", 
    "lat": "55.8333", 
    "lng": "13.3333", 
    "country": "Sweden", 
    "iso2": "SE", 
    "admin_name": "Skåne", 
    "capital": "minor", 
    "population": "", 
    "population_proper": ""
  }, 
  {
    "city": "Vellinge", 
    "lat": "55.4667", 
    "lng": "13.0167", 
    "country": "Sweden", 
    "iso2": "SE", 
    "admin_name": "Skåne", 
    "capital": "minor", 
    "population": "", 
    "population_proper": ""
  }, 
  {
    "city": "Hudiksvall", 
    "lat": "61.7290", 
    "lng": "17.1121", 
    "country": "Sweden", 
    "iso2": "SE", 
    "admin_name": "Gävleborg", 
    "capital": "minor", 
    "population": "", 
    "population_proper": ""
  }, 
  {
    "city": "Bjuv", 
    "lat": "56.0833", 
    "lng": "12.9000", 
    "country": "Sweden", 
    "iso2": "SE", 
    "admin_name": "Skåne", 
    "capital": "minor", 
    "population": "", 
    "population_proper": ""
  }, 
  {
    "city": "Forshaga", 
    "lat": "59.5333", 
    "lng": "13.4667", 
    "country": "Sweden", 
    "iso2": "SE", 
    "admin_name": "Värmland", 
    "capital": "minor", 
    "population": "", 
    "population_proper": ""
  }, 
  {
    "city": "Bromölla", 
    "lat": "56.0667", 
    "lng": "14.4667", 
    "country": "Sweden", 
    "iso2": "SE", 
    "admin_name": "Skåne", 
    "capital": "minor", 
    "population": "", 
    "population_proper": ""
  }, 
  {
    "city": "Simrishamn", 
    "lat": "55.5500", 
    "lng": "14.3333", 
    "country": "Sweden", 
    "iso2": "SE", 
    "admin_name": "Skåne", 
    "capital": "minor", 
    "population": "", 
    "population_proper": ""
  }, 
  {
    "city": "Lilla Edet", 
    "lat": "58.1333", 
    "lng": "12.1333", 
    "country": "Sweden", 
    "iso2": "SE", 
    "admin_name": "Västra Götaland", 
    "capital": "minor", 
    "population": "", 
    "population_proper": ""
  }, 
  {
    "city": "Strängnäs", 
    "lat": "59.3833", 
    "lng": "17.0333", 
    "country": "Sweden", 
    "iso2": "SE", 
    "admin_name": "Södermanland", 
    "capital": "minor", 
    "population": "", 
    "population_proper": ""
  }, 
  {
    "city": "Timrå", 
    "lat": "62.4778", 
    "lng": "17.3069", 
    "country": "Sweden", 
    "iso2": "SE", 
    "admin_name": "Västernorrland", 
    "capital": "minor", 
    "population": "", 
    "population_proper": ""
  }, 
  {
    "city": "Laholm", 
    "lat": "56.5167", 
    "lng": "13.0333", 
    "country": "Sweden", 
    "iso2": "SE", 
    "admin_name": "Halland", 
    "capital": "minor", 
    "population": "", 
    "population_proper": ""
  }, 
  {
    "city": "Grästorp", 
    "lat": "58.3333", 
    "lng": "12.6833", 
    "country": "Sweden", 
    "iso2": "SE", 
    "admin_name": "Västra Götaland", 
    "capital": "minor", 
    "population": "", 
    "population_proper": ""
  }, 
  {
    "city": "Västerhaninge", 
    "lat": "59.1167", 
    "lng": "18.1000", 
    "country": "Sweden", 
    "iso2": "SE", 
    "admin_name": "Stockholm", 
    "capital": "minor", 
    "population": "", 
    "population_proper": ""
  }, 
  {
    "city": "Svedala", 
    "lat": "55.5000", 
    "lng": "13.2333", 
    "country": "Sweden", 
    "iso2": "SE", 
    "admin_name": "Skåne", 
    "capital": "minor", 
    "population": "", 
    "population_proper": ""
  }, 
  {
    "city": "Vetlanda", 
    "lat": "57.4333", 
    "lng": "15.0667", 
    "country": "Sweden", 
    "iso2": "SE", 
    "admin_name": "Jönköping", 
    "capital": "minor", 
    "population": "", 
    "population_proper": ""
  }, 
  {
    "city": "Båstad", 
    "lat": "56.4322", 
    "lng": "12.8333", 
    "country": "Sweden", 
    "iso2": "SE", 
    "admin_name": "Skåne", 
    "capital": "minor", 
    "population": "", 
    "population_proper": ""
  }, 
  {
    "city": "Hultsfred", 
    "lat": "57.4833", 
    "lng": "15.8333", 
    "country": "Sweden", 
    "iso2": "SE", 
    "admin_name": "Kalmar", 
    "capital": "minor", 
    "population": "", 
    "population_proper": ""
  }, 
  {
    "city": "Gislaved", 
    "lat": "57.3000", 
    "lng": "13.5333", 
    "country": "Sweden", 
    "iso2": "SE", 
    "admin_name": "Jönköping", 
    "capital": "minor", 
    "population": "", 
    "population_proper": ""
  }, 
  {
    "city": "Värnamo", 
    "lat": "57.1833", 
    "lng": "14.0333", 
    "country": "Sweden", 
    "iso2": "SE", 
    "admin_name": "Jönköping", 
    "capital": "minor", 
    "population": "", 
    "population_proper": ""
  }, 
  {
    "city": "Hallstahammar", 
    "lat": "59.6167", 
    "lng": "16.2167", 
    "country": "Sweden", 
    "iso2": "SE", 
    "admin_name": "Västmanland", 
    "capital": "minor", 
    "population": "", 
    "population_proper": ""
  }, 
  {
    "city": "Säffle", 
    "lat": "59.1330", 
    "lng": "12.9213", 
    "country": "Sweden", 
    "iso2": "SE", 
    "admin_name": "Värmland", 
    "capital": "minor", 
    "population": "", 
    "population_proper": ""
  }, 
  {
    "city": "Alafors", 
    "lat": "57.9333", 
    "lng": "12.0833", 
    "country": "Sweden", 
    "iso2": "SE", 
    "admin_name": "Västra Götaland", 
    "capital": "minor", 
    "population": "", 
    "population_proper": ""
  }, 
  {
    "city": "Tomelilla", 
    "lat": "55.5500", 
    "lng": "13.9500", 
    "country": "Sweden", 
    "iso2": "SE", 
    "admin_name": "Skåne", 
    "capital": "minor", 
    "population": "", 
    "population_proper": ""
  }, 
  {
    "city": "Ludvika", 
    "lat": "60.1333", 
    "lng": "15.1833", 
    "country": "Sweden", 
    "iso2": "SE", 
    "admin_name": "Dalarna", 
    "capital": "minor", 
    "population": "", 
    "population_proper": ""
  }, 
  {
    "city": "Vadstena", 
    "lat": "58.4500", 
    "lng": "14.9000", 
    "country": "Sweden", 
    "iso2": "SE", 
    "admin_name": "Östergötland", 
    "capital": "minor", 
    "population": "", 
    "population_proper": ""
  }, 
  {
    "city": "Sala", 
    "lat": "59.9167", 
    "lng": "16.6000", 
    "country": "Sweden", 
    "iso2": "SE", 
    "admin_name": "Västmanland", 
    "capital": "minor", 
    "population": "", 
    "population_proper": ""
  }, 
  {
    "city": "Tranås", 
    "lat": "58.0322", 
    "lng": "14.9750", 
    "country": "Sweden", 
    "iso2": "SE", 
    "admin_name": "Jönköping", 
    "capital": "minor", 
    "population": "", 
    "population_proper": ""
  }, 
  {
    "city": "Skärhamn", 
    "lat": "57.9967", 
    "lng": "11.5561", 
    "country": "Sweden", 
    "iso2": "SE", 
    "admin_name": "Västra Götaland", 
    "capital": "minor", 
    "population": "", 
    "population_proper": ""
  }, 
  {
    "city": "Eksjö", 
    "lat": "57.6667", 
    "lng": "14.9500", 
    "country": "Sweden", 
    "iso2": "SE", 
    "admin_name": "Jönköping", 
    "capital": "minor", 
    "population": "", 
    "population_proper": ""
  }, 
  {
    "city": "Kristinehamn", 
    "lat": "59.3333", 
    "lng": "14.1167", 
    "country": "Sweden", 
    "iso2": "SE", 
    "admin_name": "Värmland", 
    "capital": "minor", 
    "population": "", 
    "population_proper": ""
  }, 
  {
    "city": "Gnosjö", 
    "lat": "57.3667", 
    "lng": "13.7333", 
    "country": "Sweden", 
    "iso2": "SE", 
    "admin_name": "Jönköping", 
    "capital": "minor", 
    "population": "", 
    "population_proper": ""
  }, 
  {
    "city": "Klippan", 
    "lat": "56.1333", 
    "lng": "13.1333", 
    "country": "Sweden", 
    "iso2": "SE", 
    "admin_name": "Skåne", 
    "capital": "minor", 
    "population": "", 
    "population_proper": ""
  }, 
  {
    "city": "Kungshamn", 
    "lat": "58.3500", 
    "lng": "11.2500", 
    "country": "Sweden", 
    "iso2": "SE", 
    "admin_name": "Västra Götaland", 
    "capital": "minor", 
    "population": "", 
    "population_proper": ""
  }, 
  {
    "city": "Hallsberg", 
    "lat": "59.0667", 
    "lng": "15.1167", 
    "country": "Sweden", 
    "iso2": "SE", 
    "admin_name": "Örebro", 
    "capital": "minor", 
    "population": "", 
    "population_proper": ""
  }, 
  {
    "city": "Vara", 
    "lat": "58.2667", 
    "lng": "12.9500", 
    "country": "Sweden", 
    "iso2": "SE", 
    "admin_name": "Västra Götaland", 
    "capital": "minor", 
    "population": "", 
    "population_proper": ""
  }, 
  {
    "city": "Köping", 
    "lat": "59.5141", 
    "lng": "15.9915", 
    "country": "Sweden", 
    "iso2": "SE", 
    "admin_name": "Västmanland", 
    "capital": "minor", 
    "population": "", 
    "population_proper": ""
  }, 
  {
    "city": "Nykvarn", 
    "lat": "59.1833", 
    "lng": "17.4333", 
    "country": "Sweden", 
    "iso2": "SE", 
    "admin_name": "Stockholm", 
    "capital": "minor", 
    "population": "", 
    "population_proper": ""
  }, 
  {
    "city": "Henån", 
    "lat": "58.2333", 
    "lng": "11.6833", 
    "country": "Sweden", 
    "iso2": "SE", 
    "admin_name": "Västra Götaland", 
    "capital": "minor", 
    "population": "", 
    "population_proper": ""
  }, 
  {
    "city": "Lessebo", 
    "lat": "56.7500", 
    "lng": "15.2667", 
    "country": "Sweden", 
    "iso2": "SE", 
    "admin_name": "Kronoberg", 
    "capital": "minor", 
    "population": "", 
    "population_proper": ""
  }, 
  {
    "city": "Karlskoga", 
    "lat": "59.3151", 
    "lng": "14.4917", 
    "country": "Sweden", 
    "iso2": "SE", 
    "admin_name": "Örebro", 
    "capital": "minor", 
    "population": "", 
    "population_proper": ""
  }, 
  {
    "city": "Kil", 
    "lat": "59.5167", 
    "lng": "13.3167", 
    "country": "Sweden", 
    "iso2": "SE", 
    "admin_name": "Värmland", 
    "capital": "minor", 
    "population": "", 
    "population_proper": ""
  }, 
  {
    "city": "Hofors", 
    "lat": "60.5500", 
    "lng": "16.2833", 
    "country": "Sweden", 
    "iso2": "SE", 
    "admin_name": "Gävleborg", 
    "capital": "minor", 
    "population": "", 
    "population_proper": ""
  }, 
  {
    "city": "Höör", 
    "lat": "55.9333", 
    "lng": "13.5333", 
    "country": "Sweden", 
    "iso2": "SE", 
    "admin_name": "Skåne", 
    "capital": "minor", 
    "population": "", 
    "population_proper": ""
  }, 
  {
    "city": "Trosa", 
    "lat": "58.9000", 
    "lng": "17.5500", 
    "country": "Sweden", 
    "iso2": "SE", 
    "admin_name": "Södermanland", 
    "capital": "minor", 
    "population": "", 
    "population_proper": ""
  }, 
  {
    "city": "Vimmerby", 
    "lat": "57.6657", 
    "lng": "15.8579", 
    "country": "Sweden", 
    "iso2": "SE", 
    "admin_name": "Kalmar", 
    "capital": "minor", 
    "population": "", 
    "population_proper": ""
  }, 
  {
    "city": "Mellerud", 
    "lat": "58.7000", 
    "lng": "12.4667", 
    "country": "Sweden", 
    "iso2": "SE", 
    "admin_name": "Västra Götaland", 
    "capital": "minor", 
    "population": "", 
    "population_proper": ""
  }, 
  {
    "city": "Olofström", 
    "lat": "56.2667", 
    "lng": "14.5000", 
    "country": "Sweden", 
    "iso2": "SE", 
    "admin_name": "Blekinge", 
    "capital": "minor", 
    "population": "", 
    "population_proper": ""
  }, 
  {
    "city": "Hörby", 
    "lat": "55.8500", 
    "lng": "13.6500", 
    "country": "Sweden", 
    "iso2": "SE", 
    "admin_name": "Skåne", 
    "capital": "minor", 
    "population": "", 
    "population_proper": ""
  }, 
  {
    "city": "Svalöv", 
    "lat": "55.9167", 
    "lng": "13.1000", 
    "country": "Sweden", 
    "iso2": "SE", 
    "admin_name": "Skåne", 
    "capital": "minor", 
    "population": "", 
    "population_proper": ""
  }, 
  {
    "city": "Surahammar", 
    "lat": "59.7167", 
    "lng": "16.2167", 
    "country": "Sweden", 
    "iso2": "SE", 
    "admin_name": "Västmanland", 
    "capital": "minor", 
    "population": "", 
    "population_proper": ""
  }, 
  {
    "city": "Gnesta", 
    "lat": "59.0500", 
    "lng": "17.3000", 
    "country": "Sweden", 
    "iso2": "SE", 
    "admin_name": "Södermanland", 
    "capital": "minor", 
    "population": "", 
    "population_proper": ""
  }, 
  {
    "city": "Flen", 
    "lat": "59.0667", 
    "lng": "16.5833", 
    "country": "Sweden", 
    "iso2": "SE", 
    "admin_name": "Södermanland", 
    "capital": "minor", 
    "population": "", 
    "population_proper": ""
  }, 
  {
    "city": "Finspång", 
    "lat": "58.7167", 
    "lng": "15.7833", 
    "country": "Sweden", 
    "iso2": "SE", 
    "admin_name": "Östergötland", 
    "capital": "minor", 
    "population": "", 
    "population_proper": ""
  }, 
  {
    "city": "Hyltebruk", 
    "lat": "57.0000", 
    "lng": "13.2333", 
    "country": "Sweden", 
    "iso2": "SE", 
    "admin_name": "Halland", 
    "capital": "minor", 
    "population": "", 
    "population_proper": ""
  }, 
  {
    "city": "Fagersta", 
    "lat": "60.0000", 
    "lng": "15.7833", 
    "country": "Sweden", 
    "iso2": "SE", 
    "admin_name": "Västmanland", 
    "capital": "minor", 
    "population": "", 
    "population_proper": ""
  }, 
  {
    "city": "Örkelljunga", 
    "lat": "56.2833", 
    "lng": "13.2833", 
    "country": "Sweden", 
    "iso2": "SE", 
    "admin_name": "Skåne", 
    "capital": "minor", 
    "population": "", 
    "population_proper": ""
  }, 
  {
    "city": "Bollebygd", 
    "lat": "57.6667", 
    "lng": "12.5500", 
    "country": "Sweden", 
    "iso2": "SE", 
    "admin_name": "Västra Götaland", 
    "capital": "minor", 
    "population": "", 
    "population_proper": ""
  }, 
  {
    "city": "Perstorp", 
    "lat": "56.1333", 
    "lng": "13.3833", 
    "country": "Sweden", 
    "iso2": "SE", 
    "admin_name": "Skåne", 
    "capital": "minor", 
    "population": "", 
    "population_proper": ""
  }, 
  {
    "city": "Skutskär", 
    "lat": "60.6333", 
    "lng": "17.4167", 
    "country": "Sweden", 
    "iso2": "SE", 
    "admin_name": "Uppsala", 
    "capital": "minor", 
    "population": "", 
    "population_proper": ""
  }, 
  {
    "city": "Alvesta", 
    "lat": "56.9000", 
    "lng": "14.5500", 
    "country": "Sweden", 
    "iso2": "SE", 
    "admin_name": "Kronoberg", 
    "capital": "minor", 
    "population": "", 
    "population_proper": ""
  }, 
  {
    "city": "Götene", 
    "lat": "58.5333", 
    "lng": "13.4833", 
    "country": "Sweden", 
    "iso2": "SE", 
    "admin_name": "Västra Götaland", 
    "capital": "minor", 
    "population": "", 
    "population_proper": ""
  }, 
  {
    "city": "Arboga", 
    "lat": "59.4000", 
    "lng": "15.8333", 
    "country": "Sweden", 
    "iso2": "SE", 
    "admin_name": "Västmanland", 
    "capital": "minor", 
    "population": "", 
    "population_proper": ""
  }, 
  {
    "city": "Sollefteå", 
    "lat": "63.1667", 
    "lng": "17.2667", 
    "country": "Sweden", 
    "iso2": "SE", 
    "admin_name": "Västernorrland", 
    "capital": "minor", 
    "population": "", 
    "population_proper": ""
  }, 
  {
    "city": "Ronneby", 
    "lat": "56.2000", 
    "lng": "15.3000", 
    "country": "Sweden", 
    "iso2": "SE", 
    "admin_name": "Blekinge", 
    "capital": "minor", 
    "population": "", 
    "population_proper": ""
  }, 
  {
    "city": "Katrineholm", 
    "lat": "59.0000", 
    "lng": "16.2000", 
    "country": "Sweden", 
    "iso2": "SE", 
    "admin_name": "Södermanland", 
    "capital": "minor", 
    "population": "", 
    "population_proper": ""
  }, 
  {
    "city": "Broby", 
    "lat": "56.2500", 
    "lng": "14.0833", 
    "country": "Sweden", 
    "iso2": "SE", 
    "admin_name": "Skåne", 
    "capital": "minor", 
    "population": "", 
    "population_proper": ""
  }, 
  {
    "city": "Skillingaryd", 
    "lat": "57.4333", 
    "lng": "14.0833", 
    "country": "Sweden", 
    "iso2": "SE", 
    "admin_name": "Jönköping", 
    "capital": "minor", 
    "population": "", 
    "population_proper": ""
  }, 
  {
    "city": "Mönsterås", 
    "lat": "57.0333", 
    "lng": "16.4333", 
    "country": "Sweden", 
    "iso2": "SE", 
    "admin_name": "Kalmar", 
    "capital": "minor", 
    "population": "", 
    "population_proper": ""
  }, 
  {
    "city": "Nossebro", 
    "lat": "58.1833", 
    "lng": "12.7167", 
    "country": "Sweden", 
    "iso2": "SE", 
    "admin_name": "Västra Götaland", 
    "capital": "minor", 
    "population": "", 
    "population_proper": ""
  }, 
  {
    "city": "Osby", 
    "lat": "56.3667", 
    "lng": "13.9833", 
    "country": "Sweden", 
    "iso2": "SE", 
    "admin_name": "Skåne", 
    "capital": "minor", 
    "population": "", 
    "population_proper": ""
  }, 
  {
    "city": "Kramfors", 
    "lat": "62.9248", 
    "lng": "17.7963", 
    "country": "Sweden", 
    "iso2": "SE", 
    "admin_name": "Västernorrland", 
    "capital": "minor", 
    "population": "", 
    "population_proper": ""
  }, 
  {
    "city": "Mullsjö", 
    "lat": "57.9167", 
    "lng": "13.8833", 
    "country": "Sweden", 
    "iso2": "SE", 
    "admin_name": "Jönköping", 
    "capital": "minor", 
    "population": "", 
    "population_proper": ""
  }, 
  {
    "city": "Markaryd", 
    "lat": "56.4333", 
    "lng": "13.6000", 
    "country": "Sweden", 
    "iso2": "SE", 
    "admin_name": "Kronoberg", 
    "capital": "minor", 
    "population": "", 
    "population_proper": ""
  }, 
  {
    "city": "Sävsjö", 
    "lat": "57.4000", 
    "lng": "14.6667", 
    "country": "Sweden", 
    "iso2": "SE", 
    "admin_name": "Jönköping", 
    "capital": "minor", 
    "population": "", 
    "population_proper": ""
  }, 
  {
    "city": "Munkedal", 
    "lat": "58.4833", 
    "lng": "11.6833", 
    "country": "Sweden", 
    "iso2": "SE", 
    "admin_name": "Västra Götaland", 
    "capital": "minor", 
    "population": "", 
    "population_proper": ""
  }, 
  {
    "city": "Krokom", 
    "lat": "63.3333", 
    "lng": "14.4500", 
    "country": "Sweden", 
    "iso2": "SE", 
    "admin_name": "Jämtland", 
    "capital": "minor", 
    "population": "", 
    "population_proper": ""
  }, 
  {
    "city": "Bengtsfors", 
    "lat": "59.0333", 
    "lng": "12.2167", 
    "country": "Sweden", 
    "iso2": "SE", 
    "admin_name": "Västra Götaland", 
    "capital": "minor", 
    "population": "", 
    "population_proper": ""
  }, 
  {
    "city": "Vingåker", 
    "lat": "59.0333", 
    "lng": "15.8667", 
    "country": "Sweden", 
    "iso2": "SE", 
    "admin_name": "Södermanland", 
    "capital": "minor", 
    "population": "", 
    "population_proper": ""
  }, 
  {
    "city": "Mörbylånga", 
    "lat": "56.5167", 
    "lng": "16.3833", 
    "country": "Sweden", 
    "iso2": "SE", 
    "admin_name": "Kalmar", 
    "capital": "minor", 
    "population": "", 
    "population_proper": ""
  }, 
  {
    "city": "Munkfors", 
    "lat": "59.8333", 
    "lng": "13.5333", 
    "country": "Sweden", 
    "iso2": "SE", 
    "admin_name": "Värmland", 
    "capital": "minor", 
    "population": "", 
    "population_proper": ""
  }, 
  {
    "city": "Tingsryd", 
    "lat": "56.5333", 
    "lng": "14.9833", 
    "country": "Sweden", 
    "iso2": "SE", 
    "admin_name": "Kronoberg", 
    "capital": "minor", 
    "population": "", 
    "population_proper": ""
  }, 
  {
    "city": "Åmål", 
    "lat": "59.0500", 
    "lng": "12.7000", 
    "country": "Sweden", 
    "iso2": "SE", 
    "admin_name": "Västra Götaland", 
    "capital": "minor", 
    "population": "", 
    "population_proper": ""
  }, 
  {
    "city": "Hedemora", 
    "lat": "60.2833", 
    "lng": "15.9833", 
    "country": "Sweden", 
    "iso2": "SE", 
    "admin_name": "Dalarna", 
    "capital": "minor", 
    "population": "", 
    "population_proper": ""
  }, 
  {
    "city": "Degerfors", 
    "lat": "59.2333", 
    "lng": "14.4333", 
    "country": "Sweden", 
    "iso2": "SE", 
    "admin_name": "Örebro", 
    "capital": "minor", 
    "population": "", 
    "population_proper": ""
  }, 
  {
    "city": "Söderköping", 
    "lat": "58.4833", 
    "lng": "16.3000", 
    "country": "Sweden", 
    "iso2": "SE", 
    "admin_name": "Östergötland", 
    "capital": "minor", 
    "population": "", 
    "population_proper": ""
  }, 
  {
    "city": "Aneby", 
    "lat": "57.8333", 
    "lng": "14.8000", 
    "country": "Sweden", 
    "iso2": "SE", 
    "admin_name": "Jönköping", 
    "capital": "minor", 
    "population": "", 
    "population_proper": ""
  }, 
  {
    "city": "Tanumshede", 
    "lat": "58.7333", 
    "lng": "11.3167", 
    "country": "Sweden", 
    "iso2": "SE", 
    "admin_name": "Västra Götaland", 
    "capital": "minor", 
    "population": "", 
    "population_proper": ""
  }, 
  {
    "city": "Charlottenberg", 
    "lat": "59.8833", 
    "lng": "12.2833", 
    "country": "Sweden", 
    "iso2": "SE", 
    "admin_name": "Värmland", 
    "capital": "minor", 
    "population": "", 
    "population_proper": ""
  }, 
  {
    "city": "Heby", 
    "lat": "59.9333", 
    "lng": "16.8833", 
    "country": "Sweden", 
    "iso2": "SE", 
    "admin_name": "Uppsala", 
    "capital": "minor", 
    "population": "", 
    "population_proper": ""
  }, 
  {
    "city": "Laxå", 
    "lat": "58.9833", 
    "lng": "14.6167", 
    "country": "Sweden", 
    "iso2": "SE", 
    "admin_name": "Örebro", 
    "capital": "minor", 
    "population": "", 
    "population_proper": ""
  }, 
  {
    "city": "Askersund", 
    "lat": "58.8869", 
    "lng": "14.9151", 
    "country": "Sweden", 
    "iso2": "SE", 
    "admin_name": "Örebro", 
    "capital": "minor", 
    "population": "", 
    "population_proper": ""
  }, 
  {
    "city": "Vaxholm", 
    "lat": "59.4000", 
    "lng": "18.3333", 
    "country": "Sweden", 
    "iso2": "SE", 
    "admin_name": "Stockholm", 
    "capital": "minor", 
    "population": "", 
    "population_proper": ""
  }, 
  {
    "city": "Fjugesta", 
    "lat": "59.1667", 
    "lng": "14.8667", 
    "country": "Sweden", 
    "iso2": "SE", 
    "admin_name": "Örebro", 
    "capital": "minor", 
    "population": "", 
    "population_proper": ""
  }, 
  {
    "city": "Årjäng", 
    "lat": "59.3833", 
    "lng": "12.1333", 
    "country": "Sweden", 
    "iso2": "SE", 
    "admin_name": "Värmland", 
    "capital": "minor", 
    "population": "", 
    "population_proper": ""
  }, 
  {
    "city": "Säter", 
    "lat": "60.3500", 
    "lng": "15.7500", 
    "country": "Sweden", 
    "iso2": "SE", 
    "admin_name": "Dalarna", 
    "capital": "minor", 
    "population": "", 
    "population_proper": ""
  }, 
  {
    "city": "Gagnef", 
    "lat": "60.5833", 
    "lng": "15.0667", 
    "country": "Sweden", 
    "iso2": "SE", 
    "admin_name": "Dalarna", 
    "capital": "minor", 
    "population": "", 
    "population_proper": ""
  }, 
  {
    "city": "Lindesberg", 
    "lat": "59.6024", 
    "lng": "15.2130", 
    "country": "Sweden", 
    "iso2": "SE", 
    "admin_name": "Örebro", 
    "capital": "minor", 
    "population": "", 
    "population_proper": ""
  }, 
  {
    "city": "Färgelanda", 
    "lat": "58.5667", 
    "lng": "12.0000", 
    "country": "Sweden", 
    "iso2": "SE", 
    "admin_name": "Västra Götaland", 
    "capital": "minor", 
    "population": "", 
    "population_proper": ""
  }, 
  {
    "city": "Smedjebacken", 
    "lat": "60.1333", 
    "lng": "15.4167", 
    "country": "Sweden", 
    "iso2": "SE", 
    "admin_name": "Dalarna", 
    "capital": "minor", 
    "population": "", 
    "population_proper": ""
  }, 
  {
    "city": "Boden", 
    "lat": "65.8333", 
    "lng": "21.7000", 
    "country": "Sweden", 
    "iso2": "SE", 
    "admin_name": "Norrbotten", 
    "capital": "minor", 
    "population": "", 
    "population_proper": ""
  }, 
  {
    "city": "Nora", 
    "lat": "59.5167", 
    "lng": "15.0333", 
    "country": "Sweden", 
    "iso2": "SE", 
    "admin_name": "Örebro", 
    "capital": "minor", 
    "population": "", 
    "population_proper": ""
  }, 
  {
    "city": "Sunne", 
    "lat": "59.8333", 
    "lng": "13.1500", 
    "country": "Sweden", 
    "iso2": "SE", 
    "admin_name": "Värmland", 
    "capital": "minor", 
    "population": "", 
    "population_proper": ""
  }, 
  {
    "city": "Åtvidaberg", 
    "lat": "58.2000", 
    "lng": "16.0000", 
    "country": "Sweden", 
    "iso2": "SE", 
    "admin_name": "Östergötland", 
    "capital": "minor", 
    "population": "", 
    "population_proper": ""
  }, 
  {
    "city": "Vännäs", 
    "lat": "63.9167", 
    "lng": "19.7500", 
    "country": "Sweden", 
    "iso2": "SE", 
    "admin_name": "Västerbotten", 
    "capital": "minor", 
    "population": "", 
    "population_proper": ""
  }, 
  {
    "city": "Grums", 
    "lat": "59.3167", 
    "lng": "13.1000", 
    "country": "Sweden", 
    "iso2": "SE", 
    "admin_name": "Värmland", 
    "capital": "minor", 
    "population": "", 
    "population_proper": ""
  }, 
  {
    "city": "Kalix", 
    "lat": "65.8500", 
    "lng": "23.1333", 
    "country": "Sweden", 
    "iso2": "SE", 
    "admin_name": "Norrbotten", 
    "capital": "minor", 
    "population": "", 
    "population_proper": ""
  }, 
  {
    "city": "Torsås", 
    "lat": "56.4000", 
    "lng": "16.0000", 
    "country": "Sweden", 
    "iso2": "SE", 
    "admin_name": "Kalmar", 
    "capital": "minor", 
    "population": "", 
    "population_proper": ""
  }, 
  {
    "city": "Torsby", 
    "lat": "60.1333", 
    "lng": "13.0000", 
    "country": "Sweden", 
    "iso2": "SE", 
    "admin_name": "Värmland", 
    "capital": "minor", 
    "population": "", 
    "population_proper": ""
  }, 
  {
    "city": "Hova", 
    "lat": "58.8667", 
    "lng": "14.1833", 
    "country": "Sweden", 
    "iso2": "SE", 
    "admin_name": "Västra Götaland", 
    "capital": "minor", 
    "population": "", 
    "population_proper": ""
  }, 
  {
    "city": "Norberg", 
    "lat": "60.0667", 
    "lng": "15.9333", 
    "country": "Sweden", 
    "iso2": "SE", 
    "admin_name": "Västmanland", 
    "capital": "minor", 
    "population": "", 
    "population_proper": ""
  }, 
  {
    "city": "Piteå", 
    "lat": "65.3333", 
    "lng": "21.5000", 
    "country": "Sweden", 
    "iso2": "SE", 
    "admin_name": "Norrbotten", 
    "capital": "minor", 
    "population": "", 
    "population_proper": ""
  }, 
  {
    "city": "Östhammar", 
    "lat": "60.2589", 
    "lng": "18.3736", 
    "country": "Sweden", 
    "iso2": "SE", 
    "admin_name": "Uppsala", 
    "capital": "minor", 
    "population": "", 
    "population_proper": ""
  }, 
  {
    "city": "Åseda", 
    "lat": "57.1667", 
    "lng": "15.3333", 
    "country": "Sweden", 
    "iso2": "SE", 
    "admin_name": "Kronoberg", 
    "capital": "minor", 
    "population": "", 
    "population_proper": ""
  }, 
  {
    "city": "Tierp", 
    "lat": "60.3333", 
    "lng": "17.5000", 
    "country": "Sweden", 
    "iso2": "SE", 
    "admin_name": "Uppsala", 
    "capital": "minor", 
    "population": "", 
    "population_proper": ""
  }, 
  {
    "city": "Leksand", 
    "lat": "60.7333", 
    "lng": "15.0167", 
    "country": "Sweden", 
    "iso2": "SE", 
    "admin_name": "Dalarna", 
    "capital": "minor", 
    "population": "", 
    "population_proper": ""
  }, 
  {
    "city": "Högsby", 
    "lat": "57.1667", 
    "lng": "16.0333", 
    "country": "Sweden", 
    "iso2": "SE", 
    "admin_name": "Kalmar", 
    "capital": "minor", 
    "population": "", 
    "population_proper": ""
  }, 
  {
    "city": "Ödeshög", 
    "lat": "58.2333", 
    "lng": "14.6500", 
    "country": "Sweden", 
    "iso2": "SE", 
    "admin_name": "Östergötland", 
    "capital": "minor", 
    "population": "", 
    "population_proper": ""
  }, 
  {
    "city": "Storfors", 
    "lat": "59.5333", 
    "lng": "14.2667", 
    "country": "Sweden", 
    "iso2": "SE", 
    "admin_name": "Värmland", 
    "capital": "minor", 
    "population": "", 
    "population_proper": ""
  }, 
  {
    "city": "Boxholm", 
    "lat": "58.2000", 
    "lng": "15.0500", 
    "country": "Sweden", 
    "iso2": "SE", 
    "admin_name": "Östergötland", 
    "capital": "minor", 
    "population": "", 
    "population_proper": ""
  }, 
  {
    "city": "Valdemarsvik", 
    "lat": "58.1997", 
    "lng": "16.5940", 
    "country": "Sweden", 
    "iso2": "SE", 
    "admin_name": "Östergötland", 
    "capital": "minor", 
    "population": "", 
    "population_proper": ""
  }, 
  {
    "city": "Hällefors", 
    "lat": "59.7833", 
    "lng": "14.5000", 
    "country": "Sweden", 
    "iso2": "SE", 
    "admin_name": "Örebro", 
    "capital": "minor", 
    "population": "", 
    "population_proper": ""
  }, 
  {
    "city": "Kopparberg", 
    "lat": "59.8667", 
    "lng": "14.9833", 
    "country": "Sweden", 
    "iso2": "SE", 
    "admin_name": "Örebro", 
    "capital": "minor", 
    "population": "", 
    "population_proper": ""
  }, 
  {
    "city": "Bergsjö", 
    "lat": "61.9833", 
    "lng": "17.0667", 
    "country": "Sweden", 
    "iso2": "SE", 
    "admin_name": "Gävleborg", 
    "capital": "minor", 
    "population": "", 
    "population_proper": ""
  }, 
  {
    "city": "Edsbyn", 
    "lat": "61.3833", 
    "lng": "15.8167", 
    "country": "Sweden", 
    "iso2": "SE", 
    "admin_name": "Gävleborg", 
    "capital": "minor", 
    "population": "", 
    "population_proper": ""
  }, 
  {
    "city": "Skinnskatteberg", 
    "lat": "59.8333", 
    "lng": "15.6833", 
    "country": "Sweden", 
    "iso2": "SE", 
    "admin_name": "Västmanland", 
    "capital": "minor", 
    "population": "", 
    "population_proper": ""
  }, 
  {
    "city": "Filipstad", 
    "lat": "59.7167", 
    "lng": "14.1667", 
    "country": "Sweden", 
    "iso2": "SE", 
    "admin_name": "Värmland", 
    "capital": "minor", 
    "population": "", 
    "population_proper": ""
  }, 
  {
    "city": "Ed", 
    "lat": "58.9167", 
    "lng": "11.9167", 
    "country": "Sweden", 
    "iso2": "SE", 
    "admin_name": "Västra Götaland", 
    "capital": "minor", 
    "population": "", 
    "population_proper": ""
  }, 
  {
    "city": "Hagfors", 
    "lat": "60.0333", 
    "lng": "13.6500", 
    "country": "Sweden", 
    "iso2": "SE", 
    "admin_name": "Värmland", 
    "capital": "minor", 
    "population": "", 
    "population_proper": ""
  }, 
  {
    "city": "Nordmaling", 
    "lat": "63.5667", 
    "lng": "19.5000", 
    "country": "Sweden", 
    "iso2": "SE", 
    "admin_name": "Västerbotten", 
    "capital": "minor", 
    "population": "", 
    "population_proper": ""
  }, 
  {
    "city": "Ockelbo", 
    "lat": "60.8833", 
    "lng": "16.7167", 
    "country": "Sweden", 
    "iso2": "SE", 
    "admin_name": "Gävleborg", 
    "capital": "minor", 
    "population": "", 
    "population_proper": ""
  }, 
  {
    "city": "Ljusdal", 
    "lat": "61.8333", 
    "lng": "16.1000", 
    "country": "Sweden", 
    "iso2": "SE", 
    "admin_name": "Gävleborg", 
    "capital": "minor", 
    "population": "", 
    "population_proper": ""
  }, 
  {
    "city": "Robertsfors", 
    "lat": "64.1833", 
    "lng": "20.8500", 
    "country": "Sweden", 
    "iso2": "SE", 
    "admin_name": "Västerbotten", 
    "capital": "minor", 
    "population": "", 
    "population_proper": ""
  }, 
  {
    "city": "Österbymo", 
    "lat": "57.8333", 
    "lng": "15.2667", 
    "country": "Sweden", 
    "iso2": "SE", 
    "admin_name": "Östergötland", 
    "capital": "minor", 
    "population": "", 
    "population_proper": ""
  }, 
  {
    "city": "Älvsbyn", 
    "lat": "65.6667", 
    "lng": "21.0000", 
    "country": "Sweden", 
    "iso2": "SE", 
    "admin_name": "Norrbotten", 
    "capital": "minor", 
    "population": "", 
    "population_proper": ""
  }, 
  {
    "city": "Vansbro", 
    "lat": "60.5167", 
    "lng": "14.2167", 
    "country": "Sweden", 
    "iso2": "SE", 
    "admin_name": "Dalarna", 
    "capital": "minor", 
    "population": "", 
    "population_proper": ""
  }, 
  {
    "city": "Orsa", 
    "lat": "61.1167", 
    "lng": "14.6167", 
    "country": "Sweden", 
    "iso2": "SE", 
    "admin_name": "Dalarna", 
    "capital": "minor", 
    "population": "", 
    "population_proper": ""
  }, 
  {
    "city": "Malung", 
    "lat": "60.6667", 
    "lng": "13.7000", 
    "country": "Sweden", 
    "iso2": "SE", 
    "admin_name": "Dalarna", 
    "capital": "minor", 
    "population": "", 
    "population_proper": ""
  }, 
  {
    "city": "Svenstavik", 
    "lat": "62.7667", 
    "lng": "14.4500", 
    "country": "Sweden", 
    "iso2": "SE", 
    "admin_name": "Jämtland", 
    "capital": "minor", 
    "population": "", 
    "population_proper": ""
  }, 
  {
    "city": "Hammarstrand", 
    "lat": "63.1000", 
    "lng": "16.3500", 
    "country": "Sweden", 
    "iso2": "SE", 
    "admin_name": "Jämtland", 
    "capital": "minor", 
    "population": "", 
    "population_proper": ""
  }, 
  {
    "city": "Ånge", 
    "lat": "62.5167", 
    "lng": "15.6167", 
    "country": "Sweden", 
    "iso2": "SE", 
    "admin_name": "Västernorrland", 
    "capital": "minor", 
    "population": "", 
    "population_proper": ""
  }, 
  {
    "city": "Strömsund", 
    "lat": "63.8500", 
    "lng": "15.5833", 
    "country": "Sweden", 
    "iso2": "SE", 
    "admin_name": "Jämtland", 
    "capital": "minor", 
    "population": "", 
    "population_proper": ""
  }, 
  {
    "city": "Bräcke", 
    "lat": "62.7500", 
    "lng": "15.4167", 
    "country": "Sweden", 
    "iso2": "SE", 
    "admin_name": "Jämtland", 
    "capital": "minor", 
    "population": "", 
    "population_proper": ""
  }, 
  {
    "city": "Norsjö", 
    "lat": "64.9167", 
    "lng": "19.4833", 
    "country": "Sweden", 
    "iso2": "SE", 
    "admin_name": "Västerbotten", 
    "capital": "minor", 
    "population": "", 
    "population_proper": ""
  }, 
  {
    "city": "Järpen", 
    "lat": "63.3500", 
    "lng": "13.4833", 
    "country": "Sweden", 
    "iso2": "SE", 
    "admin_name": "Jämtland", 
    "capital": "minor", 
    "population": "", 
    "population_proper": ""
  }, 
  {
    "city": "Lycksele", 
    "lat": "64.6000", 
    "lng": "18.6667", 
    "country": "Sweden", 
    "iso2": "SE", 
    "admin_name": "Västerbotten", 
    "capital": "minor", 
    "population": "", 
    "population_proper": ""
  }, 
  {
    "city": "Vindeln", 
    "lat": "64.2000", 
    "lng": "19.7333", 
    "country": "Sweden", 
    "iso2": "SE", 
    "admin_name": "Västerbotten", 
    "capital": "minor", 
    "population": "", 
    "population_proper": ""
  }, 
  {
    "city": "Älvdalen", 
    "lat": "61.2333", 
    "lng": "14.0333", 
    "country": "Sweden", 
    "iso2": "SE", 
    "admin_name": "Dalarna", 
    "capital": "minor", 
    "population": "", 
    "population_proper": ""
  }, 
  {
    "city": "Malå", 
    "lat": "65.1833", 
    "lng": "18.7500", 
    "country": "Sweden", 
    "iso2": "SE", 
    "admin_name": "Västerbotten", 
    "capital": "minor", 
    "population": "", 
    "population_proper": ""
  }, 
  {
    "city": "Bjurholm", 
    "lat": "63.9333", 
    "lng": "19.2167", 
    "country": "Sweden", 
    "iso2": "SE", 
    "admin_name": "Västerbotten", 
    "capital": "minor", 
    "population": "", 
    "population_proper": ""
  }, 
  {
    "city": "Överkalix", 
    "lat": "66.3167", 
    "lng": "22.8333", 
    "country": "Sweden", 
    "iso2": "SE", 
    "admin_name": "Norrbotten", 
    "capital": "minor", 
    "population": "", 
    "population_proper": ""
  }, 
  {
    "city": "Storuman", 
    "lat": "65.1000", 
    "lng": "17.1000", 
    "country": "Sweden", 
    "iso2": "SE", 
    "admin_name": "Västerbotten", 
    "capital": "minor", 
    "population": "", 
    "population_proper": ""
  }, 
  {
    "city": "Arvidsjaur", 
    "lat": "65.5833", 
    "lng": "19.1667", 
    "country": "Sweden", 
    "iso2": "SE", 
    "admin_name": "Norrbotten", 
    "capital": "minor", 
    "population": "", 
    "population_proper": ""
  }, 
  {
    "city": "Sveg", 
    "lat": "62.0333", 
    "lng": "14.3500", 
    "country": "Sweden", 
    "iso2": "SE", 
    "admin_name": "Jämtland", 
    "capital": "minor", 
    "population": "", 
    "population_proper": ""
  }, 
  {
    "city": "Dorotea", 
    "lat": "64.2667", 
    "lng": "16.4000", 
    "country": "Sweden", 
    "iso2": "SE", 
    "admin_name": "Västerbotten", 
    "capital": "minor", 
    "population": "", 
    "population_proper": ""
  }, 
  {
    "city": "Vilhelmina", 
    "lat": "64.6167", 
    "lng": "16.6500", 
    "country": "Sweden", 
    "iso2": "SE", 
    "admin_name": "Västerbotten", 
    "capital": "minor", 
    "population": "", 
    "population_proper": ""
  }, 
  {
    "city": "Gällivare", 
    "lat": "67.1333", 
    "lng": "20.7000", 
    "country": "Sweden", 
    "iso2": "SE", 
    "admin_name": "Norrbotten", 
    "capital": "minor", 
    "population": "", 
    "population_proper": ""
  }, 
  {
    "city": "Pajala", 
    "lat": "67.2094", 
    "lng": "23.3798", 
    "country": "Sweden", 
    "iso2": "SE", 
    "admin_name": "Norrbotten", 
    "capital": "minor", 
    "population": "", 
    "population_proper": ""
  }, 
  {
    "city": "Åsele", 
    "lat": "64.1667", 
    "lng": "17.3333", 
    "country": "Sweden", 
    "iso2": "SE", 
    "admin_name": "Västerbotten", 
    "capital": "minor", 
    "population": "", 
    "population_proper": ""
  }, 
  {
    "city": "Jokkmokk", 
    "lat": "66.6050", 
    "lng": "19.8329", 
    "country": "Sweden", 
    "iso2": "SE", 
    "admin_name": "Norrbotten", 
    "capital": "minor", 
    "population": "", 
    "population_proper": ""
  }, 
  {
    "city": "Sorsele", 
    "lat": "65.5324", 
    "lng": "17.5431", 
    "country": "Sweden", 
    "iso2": "SE", 
    "admin_name": "Västerbotten", 
    "capital": "minor", 
    "population": "", 
    "population_proper": ""
  }, 
  {
    "city": "Sölvesborg", 
    "lat": "56.0500", 
    "lng": "14.5500", 
    "country": "Sweden", 
    "iso2": "SE", 
    "admin_name": "Blekinge", 
    "capital": "minor", 
    "population": "", 
    "population_proper": ""
  }, 
  {
    "city": "Arjeplog", 
    "lat": "66.0486", 
    "lng": "17.8850", 
    "country": "Sweden", 
    "iso2": "SE", 
    "admin_name": "Norrbotten", 
    "capital": "minor", 
    "population": "", 
    "population_proper": ""
  }, 
  {
    "city": "Rättvik", 
    "lat": "60.8833", 
    "lng": "15.1000", 
    "country": "Sweden", 
    "iso2": "SE", 
    "admin_name": "Dalarna", 
    "capital": "minor", 
    "population": "", 
    "population_proper": ""
  }
]